id,state,state_abb,state_id,county,county_id,operator,ref,name,sqft,lon,lat,type,fips,nearest_plant_id,egrid_subregion,egrid_subregion_name,nearest_plant_dist_deg,nearest_plant_dist_km,qa_flag_distant_plant,SUBRGN,SRNAME,SRNGENAN,SRCO2RTA,SRC2ERTA,SRCO2AN,SRCLPR,SROLPR,SRGSPR,SRNCPR,SRHYPR,SRBMPR,SRWIPR,SRSOPR,SRGTPR,SRTNPR,SRTRPR,PSTATABB,STNGENAN,STCO2RTA,STC2ERTA,STCO2AN,STCLPR,STGSPR,STNCPR,STWIPR,STSOPR,STHYPR,STTNPR,STTRPR,bws_annual_mean_score,bws_annual_label,bws_state_score,bws_state_label,bws_state_category
751881301,District of Columbia,DC,11,District of Columbia,1,CoreSite,,CoreSite DC1,,-77.0291491,38.902887900000046,point,11001,57788,RFCE,RFC East,0.017196422198284426,1.9088028640095713,False,RFCE,RFC East,284874108.51,596.904,599.17,85021258.145,0.047,0.001,0.541,0.364,0.011,0.009,0.01,0.01,0.0,0.96,0.04,DC,171869.499,394.099,395.011,33866.772,0.0,0.519,0.0,0.0,0.143,0.0,0.519,0.481,1.2,Low-Medium (10-20%),1.2,Low-Medium (10-20%),Low-Medium
1825907839,New Mexico,NM,35,Bernalillo County,1,,,Southwest Cyberport,,-106.5893487,35.10329250000003,point,35001,50906,AZNM,WECC Southwest,0.040667769542247656,4.51412241918949,False,AZNM,WECC Southwest,175554659.519,703.703,706.189,61769179.175,0.111,0.0,0.487,0.18,0.026,0.003,0.077,0.082,0.036,0.777,0.223,NM,39258858.763,770.214,773.637,15118858.605,0.188,0.362,0.0,0.38,0.066,0.003,0.55,0.45,4.2,Extremely High (>80%),4.2,Extremely High (>80%),Extremely High
2590601520,Oregon,OR,41,Josephine County,33,,,FCR,,-123.3286299,42.43788240000002,point,41033,56193,NWPP,WECC Northwest,0.4319141100538027,47.9424662159721,False,NWPP,WECC Northwest,269253053.412,631.735,635.267,85048260.979,0.164,0.002,0.248,0.031,0.387,0.01,0.116,0.031,0.007,0.448,0.551,OR,61683300.013,364.162,364.963,11231359.308,0.0,0.379,0.0,0.145,0.031,0.427,0.38,0.621,1.5,Low-Medium (10-20%),1.5,Low-Medium (10-20%),Low-Medium
2607827436,California,CA,6,San Diego County,73,,,SDSU Computer Room,,-117.070888,32.77502519999998,point,06073,50061,CAMX,WECC California,0.0032920808070404477,0.3654209695814897,False,CAMX,WECC California,220986983.331,428.464,429.983,47342486.547,0.021,0.0,0.429,0.08,0.141,0.022,0.066,0.201,0.036,0.537,0.465,CA,216080235.825,393.486,394.769,42512302.212,0.001,0.437,0.082,0.065,0.188,0.148,0.527,0.476,4.0,Extremely High (>80%),4.0,Extremely High (>80%),Extremely High
3406467087,Florida,FL,12,Miami-Dade County,86,,,NocRoom Miami IT Services,,-80.3177484,25.791545299999996,point,12086,60006,FRCC,FRCC All,0.05443634190915927,6.042433951916679,False,FRCC,FRCC All,250055523.983,782.262,784.785,97804509.086,0.045,0.005,0.755,0.12,0.001,0.011,0.0,0.054,0.0,0.931,0.066,FL,258099011.95,786.645,789.133,101516103.816,0.044,0.759,0.116,0.0,0.054,0.001,0.929,0.067,1.5,Low-Medium (10-20%),1.5,Low-Medium (10-20%),Low-Medium
3406476814,Florida,FL,12,Miami-Dade County,86,,,NocRoom Miami IT Services,,-80.42343460000001,25.646561700000035,point,12086,61766,FRCC,FRCC All,0.06688802870505112,7.424571186260674,False,FRCC,FRCC All,250055523.983,782.262,784.785,97804509.086,0.045,0.005,0.755,0.12,0.001,0.011,0.0,0.054,0.0,0.931,0.066,FL,258099011.95,786.645,789.133,101516103.816,0.044,0.759,0.116,0.0,0.054,0.001,0.929,0.067,1.5,Low-Medium (10-20%),1.5,Low-Medium (10-20%),Low-Medium
3468203102,Louisiana,LA,22,East Baton Rouge Parish,33,,,Center for Computation & Technology (CCT),,-91.1725454,30.407445999999975,point,22033,58428,SRMV,SERC Mississippi Valley,0.009374505904847319,1.0405701554380524,False,SRMV,SERC Mississippi Valley,176359169.826,739.72,741.741,65228228.092,0.082,0.001,0.652,0.221,0.013,0.01,0.0,0.007,0.0,0.969,0.03,LA,97434806.41,761.404,763.068,37093620.722,0.05,0.76,0.125,0.0,0.003,0.007,0.964,0.031,1.0,Low-Medium (10-20%),1.0,Low-Medium (10-20%),Low-Medium
3732415309,Oregon,OR,41,Multnomah County,51,Alco Properties,,The Pittock Internet Exchange,,-122.68056199999998,45.52142480000003,point,41051,60112,NWPP,WECC Northwest,0.01875989074700023,2.0823478729170257,False,NWPP,WECC Northwest,269253053.412,631.735,635.267,85048260.979,0.164,0.002,0.248,0.031,0.387,0.01,0.116,0.031,0.007,0.448,0.551,OR,61683300.013,364.162,364.963,11231359.308,0.0,0.379,0.0,0.145,0.031,0.427,0.38,0.621,1.5,Low-Medium (10-20%),1.5,Low-Medium (10-20%),Low-Medium
4879481820,Georgia,GA,13,Fulton County,121,Google,,Google Fiber,,-84.3668585,33.77156769999996,point,13121,55152,SRSO,SERC South,0.019256808809873602,2.13750577789597,False,SRSO,SERC South,256144699.488,842.329,846.007,107879089.335,0.145,0.001,0.554,0.204,0.024,0.036,0.0,0.036,0.0,0.905,0.095,GA,129220273.258,713.831,717.445,46120743.102,0.13,0.465,0.289,0.0,0.058,0.017,0.886,0.114,1.5,Low-Medium (10-20%),1.5,Low-Medium (10-20%),Low-Medium
5146323411,California,CA,6,Alameda County,1,,,Open Computing Facility,,-122.25982310000002,37.86985210000005,point,06001,50849,CAMX,WECC California,0.0035790843549463472,0.39727836339904454,False,CAMX,WECC California,220986983.331,428.464,429.983,47342486.547,0.021,0.0,0.429,0.08,0.141,0.022,0.066,0.201,0.036,0.537,0.465,CA,216080235.825,393.486,394.769,42512302.212,0.001,0.437,0.082,0.065,0.188,0.148,0.527,0.476,4.0,Extremely High (>80%),4.0,Extremely High (>80%),Extremely High
5225685660,Virginia,VA,51,Lynchburg city,680,,,Lumos Networks,,-79.1427063,37.41568800000001,point,51680,3779,RFCW,RFC West,0.06453112771126886,7.162955175950843,False,RFCW,RFC West,524352082.167,911.424,916.054,238953647.793,0.25,0.003,0.378,0.284,0.01,0.003,0.055,0.008,0.0,0.923,0.076,VA,91024103.437,536.851,539.599,24433203.526,0.016,0.556,0.326,0.001,0.059,0.0,0.904,0.096,1.0,Low-Medium (10-20%),1.0,Low-Medium (10-20%),Low-Medium
6401035673,Oklahoma,OK,40,Oklahoma County,109,,,Rack59 Data Center,,-97.6497453,35.46720489999999,point,40109,50558,SPSO,SPP South,0.02507893254705483,2.7837615127230864,False,SPSO,SPP South,158074959.653,872.042,875.567,68923985.645,0.162,0.005,0.461,0.0,0.025,0.012,0.325,0.004,0.0,0.63,0.367,OK,88878115.88,647.207,648.834,28761252.735,0.057,0.506,0.0,0.416,0.001,0.016,0.564,0.436,2.8,Medium-High (20-40%),2.8,Medium-High (20-40%),Medium-High
6625492701,New Mexico,NM,35,Bernalillo County,1,Oso Grande,OSO,Oso Grande,,-106.6536712,35.092501500000004,point,35001,50906,AZNM,WECC Southwest,0.029699783573120208,3.296675976616343,False,AZNM,WECC Southwest,175554659.519,703.703,706.189,61769179.175,0.111,0.0,0.487,0.18,0.026,0.003,0.077,0.082,0.036,0.777,0.223,NM,39258858.763,770.214,773.637,15118858.605,0.188,0.362,0.0,0.38,0.066,0.003,0.55,0.45,4.2,Extremely High (>80%),4.2,Extremely High (>80%),Extremely High
6685432442,Nevada,NV,32,Storey County,29,Switch,,Switch Tahoe Reno - The Citadel Campus,,-119.4795921,39.51409629999995,point,32029,64098,NWPP,WECC Northwest,0.047757967072552775,5.301134345053358,False,NWPP,WECC Northwest,269253053.412,631.735,635.267,85048260.979,0.164,0.002,0.248,0.031,0.387,0.01,0.116,0.031,0.007,0.448,0.551,NV,42162355.474,642.37,643.859,13541908.809,0.049,0.583,0.0,0.007,0.23,0.031,0.632,0.368,3.8,High (40-80%),3.8,High (40-80%),High
6793837329,West Virginia,WV,54,Morgan County,65,,,Morgan Wireless,,-78.2253196,39.63098509999999,point,54065,64646,RFCE,RFC East,0.1302352266484457,14.456110157977472,False,RFCE,RFC East,284874108.51,596.904,599.17,85021258.145,0.047,0.001,0.541,0.364,0.011,0.009,0.01,0.01,0.0,0.96,0.04,WV,52286784.268,1954.383,1968.869,51094198.799,0.857,0.07,0.0,0.04,0.0,0.029,0.931,0.069,0.8,Low (<10%),0.8,Low (<10%),Low
6856057098,Texas,TX,48,Dallas County,113,,,VIRTBIZ,,-96.7828145,32.7825463,point,48113,67309,ERCT,ERCOT All,0.07903679187783705,8.773083898439912,False,ERCT,ERCOT All,477137386.101,733.862,736.629,175076531.801,0.127,0.0,0.496,0.085,0.001,0.002,0.226,0.059,0.0,0.712,0.287,TX,544038647.008,768.317,771.179,208997061.398,0.13,0.517,0.075,0.218,0.052,0.001,0.726,0.274,3.2,High (40-80%),3.2,High (40-80%),High
7171975407,Maine,ME,23,Cumberland County,5,FirstLight,,FirstLight Data Center,,-70.26137850000002,43.657838799999986,point,23005,1484,NEWE,NPCC New England,0.015856950768980818,1.7601215353568709,False,NEWE,NPCC New England,102716862.75,539.275,543.178,27696321.951,0.002,0.004,0.559,0.226,0.08,0.043,0.034,0.036,0.0,0.807,0.192,ME,12512180.99,311.824,316.835,1950796.127,0.003,0.318,0.0,0.187,0.042,0.306,0.341,0.651,0.3,Low (<10%),0.3,Low (<10%),Low
7264976228,Indiana,IN,18,Tippecanoe County,157,,,Learning GIS!,,-86.9141546,40.42178999999997,point,18157,65400,RFCW,RFC West,0.004910730430363352,0.545091077770332,False,RFCW,RFC West,524352082.167,911.424,916.054,238953647.793,0.25,0.003,0.378,0.284,0.01,0.003,0.055,0.008,0.0,0.923,0.076,IN,90031870.696,1457.19,1465.502,65596778.473,0.455,0.387,0.0,0.098,0.02,0.005,0.868,0.127,1.3,Low-Medium (10-20%),1.3,Low-Medium (10-20%),Low-Medium
7264976991,Indiana,IN,18,Tippecanoe County,157,,,Agricultural and Biological Engineering,,-86.9165454,40.4218543,point,18157,65400,RFCW,RFC West,0.0049808583246278605,0.5528752740336925,False,RFCW,RFC West,524352082.167,911.424,916.054,238953647.793,0.25,0.003,0.378,0.284,0.01,0.003,0.055,0.008,0.0,0.923,0.076,IN,90031870.696,1457.19,1465.502,65596778.473,0.455,0.387,0.0,0.098,0.02,0.005,0.868,0.127,1.3,Low-Medium (10-20%),1.3,Low-Medium (10-20%),Low-Medium
7324132050,North Carolina,NC,37,Durham County,63,,,Windstream Communications,,-78.851552,35.88139699999996,point,37063,59146,SRVC,SERC Virginia/Carolina,0.03729188733495201,4.139399494179673,False,SRVC,SERC Virginia/Carolina,319478860.928,593.419,596.326,94792347.165,0.105,0.001,0.393,0.399,0.014,0.021,0.005,0.06,0.0,0.9,0.099,NC,126510680.084,623.958,626.438,39468698.057,0.112,0.409,0.335,0.004,0.09,0.033,0.857,0.141,1.2,Low-Medium (10-20%),1.2,Low-Medium (10-20%),Low-Medium
7324132051,North Carolina,NC,37,Durham County,63,,,Level 3 Communications,,-78.8515726,35.88136400000003,point,37063,59146,SRVC,SERC Virginia/Carolina,0.037306659153001305,4.141039165983145,False,SRVC,SERC Virginia/Carolina,319478860.928,593.419,596.326,94792347.165,0.105,0.001,0.393,0.399,0.014,0.021,0.005,0.06,0.0,0.9,0.099,NC,126510680.084,623.958,626.438,39468698.057,0.112,0.409,0.335,0.004,0.09,0.033,0.857,0.141,1.2,Low-Medium (10-20%),1.2,Low-Medium (10-20%),Low-Medium
7557854384,Arizona,AZ,4,Maricopa County,13,,,OptimumHQ,,-111.7526684,33.38041490000001,point,04013,8068,AZNM,WECC Southwest,0.04797339846801064,5.325047229949181,False,AZNM,WECC Southwest,175554659.519,703.703,706.189,61769179.175,0.111,0.0,0.487,0.18,0.026,0.003,0.077,0.082,0.036,0.777,0.223,AZ,111820945.514,686.688,689.104,38393040.736,0.108,0.472,0.282,0.016,0.066,0.054,0.862,0.138,4.5,Extremely High (>80%),4.5,Extremely High (>80%),Extremely High
7557868585,Arizona,AZ,4,Maricopa County,13,,,The Chatfield Group,,-111.7528888,33.38060100000002,point,04013,8068,AZNM,WECC Southwest,0.048170614345691,5.3469381923717005,False,AZNM,WECC Southwest,175554659.519,703.703,706.189,61769179.175,0.111,0.0,0.487,0.18,0.026,0.003,0.077,0.082,0.036,0.777,0.223,AZ,111820945.514,686.688,689.104,38393040.736,0.108,0.472,0.282,0.016,0.066,0.054,0.862,0.138,4.5,Extremely High (>80%),4.5,Extremely High (>80%),Extremely High
7578821329,Arizona,AZ,4,Maricopa County,13,,,All About Serving Process Server,,-111.809686,33.31991570000004,point,04013,58543,AZNM,WECC Southwest,0.036686237810484974,4.072172396963832,False,AZNM,WECC Southwest,175554659.519,703.703,706.189,61769179.175,0.111,0.0,0.487,0.18,0.026,0.003,0.077,0.082,0.036,0.777,0.223,AZ,111820945.514,686.688,689.104,38393040.736,0.108,0.472,0.282,0.016,0.066,0.054,0.862,0.138,4.5,Extremely High (>80%),4.5,Extremely High (>80%),Extremely High
7737996606,Arizona,AZ,4,Maricopa County,13,,,Emailage,,-111.8405386,33.30296499999996,point,04013,58543,AZNM,WECC Southwest,0.0652386382289281,7.241488843411019,False,AZNM,WECC Southwest,175554659.519,703.703,706.189,61769179.175,0.111,0.0,0.487,0.18,0.026,0.003,0.077,0.082,0.036,0.777,0.223,AZ,111820945.514,686.688,689.104,38393040.736,0.108,0.472,0.282,0.016,0.066,0.054,0.862,0.138,4.5,Extremely High (>80%),4.5,Extremely High (>80%),Extremely High
7821940847,Arizona,AZ,4,Maricopa County,13,,,Alliance Technology,,-111.728405,33.37998619999999,point,04013,8068,AZNM,WECC Southwest,0.05229082343431019,5.804281401208431,False,AZNM,WECC Southwest,175554659.519,703.703,706.189,61769179.175,0.111,0.0,0.487,0.18,0.026,0.003,0.077,0.082,0.036,0.777,0.223,AZ,111820945.514,686.688,689.104,38393040.736,0.108,0.472,0.282,0.016,0.066,0.054,0.862,0.138,4.5,Extremely High (>80%),4.5,Extremely High (>80%),Extremely High
7985753364,Virginia,VA,51,Fairfax County,59,Digital Realty,,8100 Boone Boulevard,,-77.2258825,38.91372360000001,point,51059,50663,SRVC,SERC Virginia/Carolina,0.14846414692851626,16.479520309065304,False,SRVC,SERC Virginia/Carolina,319478860.928,593.419,596.326,94792347.165,0.105,0.001,0.393,0.399,0.014,0.021,0.005,0.06,0.0,0.9,0.099,VA,91024103.437,536.851,539.599,24433203.526,0.016,0.556,0.326,0.001,0.059,0.0,0.904,0.096,1.0,Low-Medium (10-20%),1.0,Low-Medium (10-20%),Low-Medium
8017899486,Florida,FL,12,Alachua County,1,University of Florida,Version 3.0,HiPerGator,,-82.2997617,29.67281869999996,point,12001,664,FRCC,FRCC All,0.034007337393245844,3.7748144506502888,False,FRCC,FRCC All,250055523.983,782.262,784.785,97804509.086,0.045,0.005,0.755,0.12,0.001,0.011,0.0,0.054,0.0,0.931,0.066,FL,258099011.95,786.645,789.133,101516103.816,0.044,0.759,0.116,0.0,0.054,0.001,0.929,0.067,1.5,Low-Medium (10-20%),1.5,Low-Medium (10-20%),Low-Medium
8109664813,Georgia,GA,13,Fulton County,121,Digital Realty,ATL13,Atlanta ATL13,,-84.3914814,33.755518599999995,point,13121,54290,SRSO,SERC South,0.003403793754023362,0.3778211066965932,False,SRSO,SERC South,256144699.488,842.329,846.007,107879089.335,0.145,0.001,0.554,0.204,0.024,0.036,0.0,0.036,0.0,0.905,0.095,GA,129220273.258,713.831,717.445,46120743.102,0.13,0.465,0.289,0.0,0.058,0.017,0.886,0.114,1.5,Low-Medium (10-20%),1.5,Low-Medium (10-20%),Low-Medium
8165754026,Wisconsin,WI,55,Milwaukee County,79,,,Data Holdings Data Center,,-87.9539794,43.04394079999997,point,55079,4042,RFCW,RFC West,0.03357524399016976,3.726852082908844,False,RFCW,RFC West,524352082.167,911.424,916.054,238953647.793,0.25,0.003,0.378,0.284,0.01,0.003,0.055,0.008,0.0,0.923,0.076,WI,62538903.174,1156.996,1163.572,36178632.494,0.337,0.41,0.155,0.028,0.02,0.031,0.905,0.095,1.0,Low-Medium (10-20%),1.0,Low-Medium (10-20%),Low-Medium
8238715059,California,CA,6,Santa Clara County,85,"Stack Infrastructure, Incorporated",,STACK Infrastructure,,-121.891051,37.402744900000016,point,06085,65203,CAMX,WECC California,0.0070492818790467374,0.7824702885741879,False,CAMX,WECC California,220986983.331,428.464,429.983,47342486.547,0.021,0.0,0.429,0.08,0.141,0.022,0.066,0.201,0.036,0.537,0.465,CA,216080235.825,393.486,394.769,42512302.212,0.001,0.437,0.082,0.065,0.188,0.148,0.527,0.476,4.0,Extremely High (>80%),4.0,Extremely High (>80%),Extremely High
8238715061,California,CA,6,Santa Clara County,85,"Stack Infrastructure, Incorporated",,STACK Infrastructure,,-121.891057,37.40263410000001,point,06085,65203,CAMX,WECC California,0.006977834464225544,0.7745396255290353,False,CAMX,WECC California,220986983.331,428.464,429.983,47342486.547,0.021,0.0,0.429,0.08,0.141,0.022,0.066,0.201,0.036,0.537,0.465,CA,216080235.825,393.486,394.769,42512302.212,0.001,0.437,0.082,0.065,0.188,0.148,0.527,0.476,4.0,Extremely High (>80%),4.0,Extremely High (>80%),Extremely High
8477460442,California,CA,6,San Luis Obispo County,79,,,Digital West Data Center,,-120.64151280000002,35.25531619999998,point,06079,58190,CAMX,WECC California,0.07456655993726229,8.276888153036113,False,CAMX,WECC California,220986983.331,428.464,429.983,47342486.547,0.021,0.0,0.429,0.08,0.141,0.022,0.066,0.201,0.036,0.537,0.465,CA,216080235.825,393.486,394.769,42512302.212,0.001,0.437,0.082,0.065,0.188,0.148,0.527,0.476,4.0,Extremely High (>80%),4.0,Extremely High (>80%),Extremely High
8641856300,Michigan,MI,26,Macomb County,99,Dennis Sampier,,Chick-fil-A Hiring Center,,-82.98839390000002,42.62794240000004,point,26099,1734,RFCM,RFC Michigan,0.1847544156305325,20.507740134989106,False,RFCM,RFC Michigan,91629481.603,970.617,975.978,44468548.656,0.257,0.015,0.498,0.102,0.0,0.015,0.088,0.013,0.0,0.888,0.112,MI,120648501.215,793.171,797.432,47847447.148,0.195,0.448,0.232,0.069,0.011,0.005,0.899,0.101,0.8,Low (<10%),0.8,Low (<10%),Low
8767284091,Connecticut,CT,9,Capitol Planning Region,110,,,Ergonomic Group,,-72.5898636,41.7070776,point,09110,60109,NEWE,NPCC New England,0.05469380838559829,6.07101273080141,False,NEWE,NPCC New England,102716862.75,539.275,543.178,27696321.951,0.002,0.004,0.559,0.226,0.08,0.043,0.034,0.036,0.0,0.807,0.192,CT,40652074.995,538.266,540.674,10940807.506,0.0,0.614,0.336,0.0,0.01,0.012,0.963,0.037,1.0,Low-Medium (10-20%),1.0,Low-Medium (10-20%),Low-Medium
8897151054,California,CA,6,Santa Clara County,85,CoreSite,SV1,San Jose Colocation Center,,-121.891646,37.3341181,point,06085,61474,CAMX,WECC California,4.07235803930056e-05,0.004520317423623622,False,CAMX,WECC California,220986983.331,428.464,429.983,47342486.547,0.021,0.0,0.429,0.08,0.141,0.022,0.066,0.201,0.036,0.537,0.465,CA,216080235.825,393.486,394.769,42512302.212,0.001,0.437,0.082,0.065,0.188,0.148,0.527,0.476,4.0,Extremely High (>80%),4.0,Extremely High (>80%),Extremely High
9092482804,Virginia,VA,51,Loudoun County,107,Amazon Web Services,IAD69,Amazon Web Services IAD69,,-77.4146998,39.02548510000001,point,51107,59004,SRVC,SERC Virginia/Carolina,0.1343093654472782,14.90833956464788,False,SRVC,SERC Virginia/Carolina,319478860.928,593.419,596.326,94792347.165,0.105,0.001,0.393,0.399,0.014,0.021,0.005,0.06,0.0,0.9,0.099,VA,91024103.437,536.851,539.599,24433203.526,0.016,0.556,0.326,0.001,0.059,0.0,0.904,0.096,1.0,Low-Medium (10-20%),1.0,Low-Medium (10-20%),Low-Medium
9190480200,Texas,TX,48,Montgomery County,339,,,Stream Data Centers Houston,,-95.4860464,30.178136500000015,point,48339,66594,ERCT,ERCOT All,0.052055724588265906,5.778185429297515,False,ERCT,ERCOT All,477137386.101,733.862,736.629,175076531.801,0.127,0.0,0.496,0.085,0.001,0.002,0.226,0.059,0.0,0.712,0.287,TX,544038647.008,768.317,771.179,208997061.398,0.13,0.517,0.075,0.218,0.052,0.001,0.726,0.274,3.2,High (40-80%),3.2,High (40-80%),High
9669340912,Maryland,MD,24,Baltimore city,510,Crown Castle Fiber,Baltimore,Crown Castle Baltimore,,-76.6064893,39.28770169999999,point,24510,56050,RFCE,RFC East,0.00814338373037313,0.9039155940714175,False,RFCE,RFC East,284874108.51,596.904,599.17,85021258.145,0.047,0.001,0.541,0.364,0.011,0.009,0.01,0.01,0.0,0.96,0.04,MD,35987133.297,520.022,522.207,9357054.491,0.047,0.426,0.416,0.013,0.026,0.051,0.9,0.1,1.2,Low-Medium (10-20%),1.2,Low-Medium (10-20%),Low-Medium
9669405859,Maryland,MD,24,Baltimore city,510,AiNET,BW1,AiNET One Market Center,,-76.6203737,39.29175829999999,point,24510,56050,RFCE,RFC East,0.022467401438081604,2.493881559627058,False,RFCE,RFC East,284874108.51,596.904,599.17,85021258.145,0.047,0.001,0.541,0.364,0.011,0.009,0.01,0.01,0.0,0.96,0.04,MD,35987133.297,520.022,522.207,9357054.491,0.047,0.426,0.416,0.013,0.026,0.051,0.9,0.1,1.2,Low-Medium (10-20%),1.2,Low-Medium (10-20%),Low-Medium
9669639033,Virginia,VA,51,Fairfax County,59,Lumen Technologies,,Lumen McLean,,-77.2115713,38.9208538,point,51059,56668,RFCE,RFC East,0.14181204398121086,15.741136881914406,False,RFCE,RFC East,284874108.51,596.904,599.17,85021258.145,0.047,0.001,0.541,0.364,0.011,0.009,0.01,0.01,0.0,0.96,0.04,VA,91024103.437,536.851,539.599,24433203.526,0.016,0.556,0.326,0.001,0.059,0.0,0.904,0.096,1.0,Low-Medium (10-20%),1.0,Low-Medium (10-20%),Low-Medium
9721703993,Wisconsin,WI,55,Milwaukee County,79,,,TierPoint Milwaukee,,-87.9610618,43.00937789999995,point,55079,4042,RFCW,RFC West,0.04317045063062945,4.791920019999869,False,RFCW,RFC West,524352082.167,911.424,916.054,238953647.793,0.25,0.003,0.378,0.284,0.01,0.003,0.055,0.008,0.0,0.923,0.076,WI,62538903.174,1156.996,1163.572,36178632.494,0.337,0.41,0.155,0.028,0.02,0.031,0.905,0.095,1.0,Low-Medium (10-20%),1.0,Low-Medium (10-20%),Low-Medium
9736262934,New York,NY,36,Erie County,29,,,Frontier Science,,-78.8123836,42.990201099999986,point,36029,66094,NYUP,NPCC Upstate NY,0.0210886031725746,2.340834952155781,False,NYUP,NPCC Upstate NY,85283183.254,242.089,242.776,10323051.399,0.0,0.001,0.255,0.323,0.329,0.012,0.056,0.021,0.0,0.582,0.418,NY,123473720.157,465.136,466.616,28716017.307,0.0,0.469,0.223,0.039,0.018,0.227,0.703,0.297,0.8,Low (<10%),0.8,Low (<10%),Low
9808044830,New Mexico,NM,35,Bernalillo County,1,,,505 Marquette,,-106.6526456,35.088628899999954,point,35001,50906,AZNM,WECC Southwest,0.027829224782052304,3.0890439508078056,False,AZNM,WECC Southwest,175554659.519,703.703,706.189,61769179.175,0.111,0.0,0.487,0.18,0.026,0.003,0.077,0.082,0.036,0.777,0.223,NM,39258858.763,770.214,773.637,15118858.605,0.188,0.362,0.0,0.38,0.066,0.003,0.55,0.45,4.2,Extremely High (>80%),4.2,Extremely High (>80%),Extremely High
9808044840,New Mexico,NM,35,Bernalillo County,1,bigbyte.cc,,123 Central,,-106.6489853,35.08444940000002,point,35001,50906,AZNM,WECC Southwest,0.023797198373975658,2.641489019511298,False,AZNM,WECC Southwest,175554659.519,703.703,706.189,61769179.175,0.111,0.0,0.487,0.18,0.026,0.003,0.077,0.082,0.036,0.777,0.223,NM,39258858.763,770.214,773.637,15118858.605,0.188,0.362,0.0,0.38,0.066,0.003,0.55,0.45,4.2,Extremely High (>80%),4.2,Extremely High (>80%),Extremely High
9861806598,Missouri,MO,29,Jackson County,95,,,,,-94.5788209,39.101181600000075,point,29095,58205,SPNO,SPP North,0.011003354568876567,1.221372357145299,False,SPNO,SPP North,73458953.049,861.999,867.74,31660769.923,0.316,0.002,0.14,0.14,0.001,0.001,0.397,0.002,0.0,0.599,0.401,MO,66705178.956,1444.137,1454.593,48165698.608,0.605,0.139,0.138,0.102,0.003,0.011,0.883,0.117,1.8,Low-Medium (10-20%),1.8,Low-Medium (10-20%),Low-Medium
9922928085,Missouri,MO,29,Jackson County,95,,,Netrality Data Centers,,-94.5811452,39.10090709999998,point,29095,58205,SPNO,SPP North,0.011036952987595652,1.2251017816231173,False,SPNO,SPP North,73458953.049,861.999,867.74,31660769.923,0.316,0.002,0.14,0.14,0.001,0.001,0.397,0.002,0.0,0.599,0.401,MO,66705178.956,1444.137,1454.593,48165698.608,0.605,0.139,0.138,0.102,0.003,0.011,0.883,0.117,1.8,Low-Medium (10-20%),1.8,Low-Medium (10-20%),Low-Medium
10014176940,Puerto Rico,PR,72,Guaynabo Municipio,61,Microsoft,,Microsoft,,-66.10898950000002,18.41743590000001,point,72061,61148,PRMS,Puerto Rico Miscellaneous,0.010656004835768897,1.1828165367703476,False,PRMS,Puerto Rico Miscellaneous,17501153.122,1543.073,1548.53,13502782.48,0.152,0.39,0.436,0.0,0.002,0.0,0.006,0.015,0.0,0.977,0.023,PR,17501153.122,1543.073,1548.53,13502782.48,0.152,0.436,0.0,0.006,0.015,0.002,0.977,0.023,2.5,Medium-High (20-40%),2.5,Medium-High (20-40%),Medium-High
10537283366,Illinois,IL,17,Cook County,31,Netrality,,Netrality,,-87.63344,41.872881100000015,point,17031,54044,RFCW,RFC West,0.019708826378313164,2.1876797279927613,False,RFCW,RFC West,524352082.167,911.424,916.054,238953647.793,0.25,0.003,0.378,0.284,0.01,0.003,0.055,0.008,0.0,0.923,0.076,IL,177690286.567,471.705,474.436,41908695.063,0.153,0.16,0.549,0.123,0.011,0.001,0.863,0.135,1.5,Low-Medium (10-20%),1.5,Low-Medium (10-20%),Low-Medium
10567817971,North Carolina,NC,37,Durham County,63,Duke Libraries,,Brandaleone Lab for Data and Visualization,,-78.9385323,36.00309929999997,point,37063,57365,SRVC,SERC Virginia/Carolina,0.08337482440030412,9.254605508433757,False,SRVC,SERC Virginia/Carolina,319478860.928,593.419,596.326,94792347.165,0.105,0.001,0.393,0.399,0.014,0.021,0.005,0.06,0.0,0.9,0.099,NC,126510680.084,623.958,626.438,39468698.057,0.112,0.409,0.335,0.004,0.09,0.033,0.857,0.141,1.2,Low-Medium (10-20%),1.2,Low-Medium (10-20%),Low-Medium
10648552506,Tennessee,TN,47,Roane County,145,Oak Ridge National Laboratory,,Frontier (supercomputer),,-84.310567,35.92951329999998,point,47145,3408,SRTV,SERC Tennessee Valley,0.045389725554231486,5.0382595365196945,False,SRTV,SERC Tennessee Valley,209324307.73,898.079,903.306,93994898.715,0.282,0.001,0.298,0.328,0.076,0.007,0.0,0.008,0.0,0.909,0.091,TN,77754006.807,657.267,661.166,25552566.613,0.203,0.193,0.488,0.0,0.012,0.096,0.885,0.115,1.2,Low-Medium (10-20%),1.2,Low-Medium (10-20%),Low-Medium
10780794741,California,CA,6,San Francisco County,75,Ntirety,,,,-122.3940005,37.7796531,point,06075,58607,CAMX,WECC California,0.01368091321001451,1.5185813663116106,False,CAMX,WECC California,220986983.331,428.464,429.983,47342486.547,0.021,0.0,0.429,0.08,0.141,0.022,0.066,0.201,0.036,0.537,0.465,CA,216080235.825,393.486,394.769,42512302.212,0.001,0.437,0.082,0.065,0.188,0.148,0.527,0.476,4.0,Extremely High (>80%),4.0,Extremely High (>80%),Extremely High
10796113031,Arizona,AZ,4,Maricopa County,13,,,VaultLogix,,-111.9017033,33.62736699999998,point,04013,58292,AZNM,WECC Southwest,0.03347962470950534,3.716238342755093,False,AZNM,WECC Southwest,175554659.519,703.703,706.189,61769179.175,0.111,0.0,0.487,0.18,0.026,0.003,0.077,0.082,0.036,0.777,0.223,AZ,111820945.514,686.688,689.104,38393040.736,0.108,0.472,0.282,0.016,0.066,0.054,0.862,0.138,4.5,Extremely High (>80%),4.5,Extremely High (>80%),Extremely High
10796113033,Arizona,AZ,4,Maricopa County,13,,,Profit Finder Pro Software,,-111.9020476,33.627247700000005,point,04013,58292,AZNM,WECC Southwest,0.03315670014115292,3.6803937156679742,False,AZNM,WECC Southwest,175554659.519,703.703,706.189,61769179.175,0.111,0.0,0.487,0.18,0.026,0.003,0.077,0.082,0.036,0.777,0.223,AZ,111820945.514,686.688,689.104,38393040.736,0.108,0.472,0.282,0.016,0.066,0.054,0.862,0.138,4.5,Extremely High (>80%),4.5,Extremely High (>80%),Extremely High
10798644674,Arizona,AZ,4,Maricopa County,13,,,DataPro USA Web Development,,-111.9139825,33.61166239999997,point,04013,58292,AZNM,WECC Southwest,0.013762520888612993,1.5276398186360423,False,AZNM,WECC Southwest,175554659.519,703.703,706.189,61769179.175,0.111,0.0,0.487,0.18,0.026,0.003,0.077,0.082,0.036,0.777,0.223,AZ,111820945.514,686.688,689.104,38393040.736,0.108,0.472,0.282,0.016,0.066,0.054,0.862,0.138,4.5,Extremely High (>80%),4.5,Extremely High (>80%),Extremely High
10880725408,California,CA,6,Contra Costa County,13,,,e360,,-122.0437382,37.971080899999976,point,06013,57573,CAMX,WECC California,0.037254870340008,4.135290607740888,False,CAMX,WECC California,220986983.331,428.464,429.983,47342486.547,0.021,0.0,0.429,0.08,0.141,0.022,0.066,0.201,0.036,0.537,0.465,CA,216080235.825,393.486,394.769,42512302.212,0.001,0.437,0.082,0.065,0.188,0.148,0.527,0.476,4.0,Extremely High (>80%),4.0,Extremely High (>80%),Extremely High
10910879064,Illinois,IL,17,Cook County,31,Digital Realty,ORD10,Digital Realty ORD10,,-87.6183067,41.853350700000014,point,17031,55067,RFCW,RFC West,0.000673134295681739,0.07471790682067303,False,RFCW,RFC West,524352082.167,911.424,916.054,238953647.793,0.25,0.003,0.378,0.284,0.01,0.003,0.055,0.008,0.0,0.923,0.076,IL,177690286.567,471.705,474.436,41908695.063,0.153,0.16,0.549,0.123,0.011,0.001,0.863,0.135,1.5,Low-Medium (10-20%),1.5,Low-Medium (10-20%),Low-Medium
10910879065,Illinois,IL,17,Cook County,31,Centersquare,ORD1,Centersquare Chicago Data Center - ORD1,,-87.6186071,41.85338270000003,point,17031,55067,RFCW,RFC West,0.0006806615165051383,0.07555342833207035,False,RFCW,RFC West,524352082.167,911.424,916.054,238953647.793,0.25,0.003,0.378,0.284,0.01,0.003,0.055,0.008,0.0,0.923,0.076,IL,177690286.567,471.705,474.436,41908695.063,0.153,0.16,0.549,0.123,0.011,0.001,0.863,0.135,1.5,Low-Medium (10-20%),1.5,Low-Medium (10-20%),Low-Medium
10938672218,Arizona,AZ,4,Maricopa County,13,,,K-Motion Interactive,,-111.8843457,33.63448429999997,point,04013,58292,AZNM,WECC Southwest,0.051166235376254636,5.679452126764264,False,AZNM,WECC Southwest,175554659.519,703.703,706.189,61769179.175,0.111,0.0,0.487,0.18,0.026,0.003,0.077,0.082,0.036,0.777,0.223,AZ,111820945.514,686.688,689.104,38393040.736,0.108,0.472,0.282,0.016,0.066,0.054,0.862,0.138,4.5,Extremely High (>80%),4.5,Extremely High (>80%),Extremely High
10945121336,Illinois,IL,17,Cook County,31,,,West Monroe,,-87.6359383,41.8805271,point,17031,54044,RFCW,RFC West,0.020992686852809198,2.330188240661821,False,RFCW,RFC West,524352082.167,911.424,916.054,238953647.793,0.25,0.003,0.378,0.284,0.01,0.003,0.055,0.008,0.0,0.923,0.076,IL,177690286.567,471.705,474.436,41908695.063,0.153,0.16,0.549,0.123,0.011,0.001,0.863,0.135,1.5,Low-Medium (10-20%),1.5,Low-Medium (10-20%),Low-Medium
11018926315,Arizona,AZ,4,Maricopa County,13,,,Iron Mountain Data Centers AZS-1,,-111.8960985,33.64466630000003,point,04013,58292,AZNM,WECC Southwest,0.05050467125270291,5.606018509050023,False,AZNM,WECC Southwest,175554659.519,703.703,706.189,61769179.175,0.111,0.0,0.487,0.18,0.026,0.003,0.077,0.082,0.036,0.777,0.223,AZ,111820945.514,686.688,689.104,38393040.736,0.108,0.472,0.282,0.016,0.066,0.054,0.862,0.138,4.5,Extremely High (>80%),4.5,Extremely High (>80%),Extremely High
11098469355,Illinois,IL,17,Cook County,31,CoreSite,CH1,CoreSite Chicago Data Center (CH1),,-87.6314655,41.875940500000006,point,17031,54044,RFCW,RFC West,0.022572003245178437,2.5054923602148067,False,RFCW,RFC West,524352082.167,911.424,916.054,238953647.793,0.25,0.003,0.378,0.284,0.01,0.003,0.055,0.008,0.0,0.923,0.076,IL,177690286.567,471.705,474.436,41908695.063,0.153,0.16,0.549,0.123,0.011,0.001,0.863,0.135,1.5,Low-Medium (10-20%),1.5,Low-Medium (10-20%),Low-Medium
11113161710,Arizona,AZ,4,Maricopa County,13,,,Accelera Data Systems,,-112.1117142,33.664745499999945,point,04013,58293,AZNM,WECC Southwest,0.11438048422648413,12.696233749139738,False,AZNM,WECC Southwest,175554659.519,703.703,706.189,61769179.175,0.111,0.0,0.487,0.18,0.026,0.003,0.077,0.082,0.036,0.777,0.223,AZ,111820945.514,686.688,689.104,38393040.736,0.108,0.472,0.282,0.016,0.066,0.054,0.862,0.138,4.5,Extremely High (>80%),4.5,Extremely High (>80%),Extremely High
11167641842,Maryland,MD,24,Baltimore County,5,Expedient,,Expedient Owings Mills,,-76.8115503,39.4273178,point,24005,64606,RFCE,RFC East,0.06529228884738845,7.247444062060119,False,RFCE,RFC East,284874108.51,596.904,599.17,85021258.145,0.047,0.001,0.541,0.364,0.011,0.009,0.01,0.01,0.0,0.96,0.04,MD,35987133.297,520.022,522.207,9357054.491,0.047,0.426,0.416,0.013,0.026,0.051,0.9,0.1,1.2,Low-Medium (10-20%),1.2,Low-Medium (10-20%),Low-Medium
11168593074,Maryland,MD,24,Baltimore city,510,Lumen Technologies,,Lumen Baltimore,,-76.6204024,39.29175920000002,point,24510,56050,RFCE,RFC East,0.02249450632044853,2.4968902015697867,False,RFCE,RFC East,284874108.51,596.904,599.17,85021258.145,0.047,0.001,0.541,0.364,0.011,0.009,0.01,0.01,0.0,0.96,0.04,MD,35987133.297,520.022,522.207,9357054.491,0.047,0.426,0.416,0.013,0.026,0.051,0.9,0.1,1.2,Low-Medium (10-20%),1.2,Low-Medium (10-20%),Low-Medium
11168593094,Maryland,MD,24,Baltimore city,510,Expedient,,Expedient Tidepoint,,-76.5916709,39.2746554,point,24510,54795,RFCE,RFC East,0.003937392026455457,0.4370505149365558,False,RFCE,RFC East,284874108.51,596.904,599.17,85021258.145,0.047,0.001,0.541,0.364,0.011,0.009,0.01,0.01,0.0,0.96,0.04,MD,35987133.297,520.022,522.207,9357054.491,0.047,0.426,0.416,0.013,0.026,0.051,0.9,0.1,1.2,Low-Medium (10-20%),1.2,Low-Medium (10-20%),Low-Medium
11400893880,Colorado,CO,8,Arapahoe County,5,Flexential,,Flexential - Denver - Centennial Data Center,,-104.8431597,39.59387330000001,point,08005,54142,RMPA,WECC Rockies,0.08542023119249305,9.481645662366729,False,RMPA,WECC Rockies,67674810.481,1036.601,1042.539,35075879.989,0.317,0.001,0.264,0.0,0.105,0.002,0.258,0.054,0.0,0.581,0.419,CO,57471488.483,1085.021,1091.078,31178885.504,0.326,0.3,0.0,0.28,0.063,0.028,0.626,0.373,3.5,High (40-80%),3.5,High (40-80%),High
11526819452,Oregon,OR,41,Lane County,39,,,EarthClick.net LLC,,-123.05594560000002,43.797155399999994,point,41039,59357,NWPP,WECC Northwest,0.09844988736774091,10.92793749781924,False,NWPP,WECC Northwest,269253053.412,631.735,635.267,85048260.979,0.164,0.002,0.248,0.031,0.387,0.01,0.116,0.031,0.007,0.448,0.551,OR,61683300.013,364.162,364.963,11231359.308,0.0,0.379,0.0,0.145,0.031,0.427,0.38,0.621,1.5,Low-Medium (10-20%),1.5,Low-Medium (10-20%),Low-Medium
11666916913,Arizona,AZ,4,Maricopa County,13,EdgeConneX,,EdgeConneX Data Center,,-111.9700762,33.39558550000002,point,04013,58708,AZNM,WECC Southwest,0.04139830958733642,4.595212364194342,False,AZNM,WECC Southwest,175554659.519,703.703,706.189,61769179.175,0.111,0.0,0.487,0.18,0.026,0.003,0.077,0.082,0.036,0.777,0.223,AZ,111820945.514,686.688,689.104,38393040.736,0.108,0.472,0.282,0.016,0.066,0.054,0.862,0.138,4.5,Extremely High (>80%),4.5,Extremely High (>80%),Extremely High
11815482844,Michigan,MI,26,Monroe County,115,,,,,-83.6276287,41.8072817,point,26115,63322,RFCM,RFC Michigan,0.11698465890270306,12.985297138200039,False,RFCM,RFC Michigan,91629481.603,970.617,975.978,44468548.656,0.257,0.015,0.498,0.102,0.0,0.015,0.088,0.013,0.0,0.888,0.112,MI,120648501.215,793.171,797.432,47847447.148,0.195,0.448,0.232,0.069,0.011,0.005,0.899,0.101,0.8,Low (<10%),0.8,Low (<10%),Low
11924506303,California,CA,6,Riverside County,65,,,IT,,-117.5030207,33.910289899999995,point,06065,59877,CAMX,WECC California,0.06973981275927801,7.741119216279859,False,CAMX,WECC California,220986983.331,428.464,429.983,47342486.547,0.021,0.0,0.429,0.08,0.141,0.022,0.066,0.201,0.036,0.537,0.465,CA,216080235.825,393.486,394.769,42512302.212,0.001,0.437,0.082,0.065,0.188,0.148,0.527,0.476,4.0,Extremely High (>80%),4.0,Extremely High (>80%),Extremely High
11938614120,Arizona,AZ,4,Maricopa County,13,,,"Alembic Computer Services, Inc.",,-111.9773353,33.40513069999998,point,04013,58708,AZNM,WECC Southwest,0.030160899996208943,3.3478598995791926,False,AZNM,WECC Southwest,175554659.519,703.703,706.189,61769179.175,0.111,0.0,0.487,0.18,0.026,0.003,0.077,0.082,0.036,0.777,0.223,AZ,111820945.514,686.688,689.104,38393040.736,0.108,0.472,0.282,0.016,0.066,0.054,0.862,0.138,4.5,Extremely High (>80%),4.5,Extremely High (>80%),Extremely High
11938631189,Arizona,AZ,4,Maricopa County,13,,,J-Curve Technologies,,-111.9711539,33.413185599999956,point,04013,58708,AZNM,WECC Southwest,0.024990085485483652,2.773899488888685,False,AZNM,WECC Southwest,175554659.519,703.703,706.189,61769179.175,0.111,0.0,0.487,0.18,0.026,0.003,0.077,0.082,0.036,0.777,0.223,AZ,111820945.514,686.688,689.104,38393040.736,0.108,0.472,0.282,0.016,0.066,0.054,0.862,0.138,4.5,Extremely High (>80%),4.5,Extremely High (>80%),Extremely High
12112201416,Ohio,OH,39,Butler County,17,Flexential,,Flexential Cincinnati,,-84.44946380000002,39.31593130000003,point,39017,7782,RFCW,RFC West,0.07808792140993107,8.667759276502348,False,RFCW,RFC West,524352082.167,911.424,916.054,238953647.793,0.25,0.003,0.378,0.284,0.01,0.003,0.055,0.008,0.0,0.923,0.076,OH,133121090.814,1063.843,1068.27,70809976.727,0.236,0.591,0.122,0.021,0.01,0.004,0.962,0.038,1.2,Low-Medium (10-20%),1.2,Low-Medium (10-20%),Low-Medium
12112236372,Colorado,CO,8,Denver County,31,Flexential,,Flexential Denver - Downtown,,-104.9941589,39.74597020000002,point,08031,469,RMPA,WECC Rockies,0.06808145049753224,7.557041005226078,False,RMPA,WECC Rockies,67674810.481,1036.601,1042.539,35075879.989,0.317,0.001,0.264,0.0,0.105,0.002,0.258,0.054,0.0,0.581,0.419,CO,57471488.483,1085.021,1091.078,31178885.504,0.326,0.3,0.0,0.28,0.063,0.028,0.626,0.373,3.5,High (40-80%),3.5,High (40-80%),High
12112238944,Texas,TX,48,Dallas County,113,Flexential,,Flexential Dallas - Downtown Dallas,,-96.8193707,32.800410099999986,point,48113,67309,ERCT,ERCOT All,0.03836186584749964,4.258167109072461,False,ERCT,ERCOT All,477137386.101,733.862,736.629,175076531.801,0.127,0.0,0.496,0.085,0.001,0.002,0.226,0.059,0.0,0.712,0.287,TX,544038647.008,768.317,771.179,208997061.398,0.13,0.517,0.075,0.218,0.052,0.001,0.726,0.274,3.2,High (40-80%),3.2,High (40-80%),High
12112266917,Florida,FL,12,Duval County,31,Flexential,,Flexential Jacksonville,,-81.5817226,30.245748200000005,point,12031,61821,FRCC,FRCC All,0.07343117290360901,8.1508601923006,False,FRCC,FRCC All,250055523.983,782.262,784.785,97804509.086,0.045,0.005,0.755,0.12,0.001,0.011,0.0,0.054,0.0,0.931,0.066,FL,258099011.95,786.645,789.133,101516103.816,0.044,0.759,0.116,0.0,0.054,0.001,0.929,0.067,1.5,Low-Medium (10-20%),1.5,Low-Medium (10-20%),Low-Medium
12112270180,Colorado,CO,8,Arapahoe County,5,Flexential,,Flexential - Denver - Aurora,,-104.8488321,39.66104880000002,point,08005,54142,RMPA,WECC Rockies,0.06773111967072783,7.518154283450789,False,RMPA,WECC Rockies,67674810.481,1036.601,1042.539,35075879.989,0.317,0.001,0.264,0.0,0.105,0.002,0.258,0.054,0.0,0.581,0.419,CO,57471488.483,1085.021,1091.078,31178885.504,0.326,0.3,0.0,0.28,0.063,0.028,0.626,0.373,3.5,High (40-80%),3.5,High (40-80%),High
12112295055,Tennessee,TN,47,Williamson County,187,Flexential,,Flexential Nashville - Brentwood,,-86.8084949,35.972729399999956,point,47187,52048,SRTV,SERC Tennessee Valley,0.17322934124214065,19.228456877877612,False,SRTV,SERC Tennessee Valley,209324307.73,898.079,903.306,93994898.715,0.282,0.001,0.298,0.328,0.076,0.007,0.0,0.008,0.0,0.909,0.091,TN,77754006.807,657.267,661.166,25552566.613,0.203,0.193,0.488,0.0,0.012,0.096,0.885,0.115,1.2,Low-Medium (10-20%),1.2,Low-Medium (10-20%),Low-Medium
12112361725,North Carolina,NC,37,Wake County,183,Flexential,,Flexential Raleigh,,-78.8291431,35.850528100000005,point,37183,59146,SRVC,SERC Virginia/Carolina,0.07543681034627096,8.373485948436077,False,SRVC,SERC Virginia/Carolina,319478860.928,593.419,596.326,94792347.165,0.105,0.001,0.393,0.399,0.014,0.021,0.005,0.06,0.0,0.9,0.099,NC,126510680.084,623.958,626.438,39468698.057,0.112,0.409,0.335,0.004,0.09,0.033,0.857,0.141,1.2,Low-Medium (10-20%),1.2,Low-Medium (10-20%),Low-Medium
12112380995,Florida,FL,12,Hillsborough County,57,Flexential,,Flexential Tampa - West,,-82.5399781,28.037299100000027,point,12057,59769,FRCC,FRCC All,0.07185990523806632,7.9764494814253615,False,FRCC,FRCC All,250055523.983,782.262,784.785,97804509.086,0.045,0.005,0.755,0.12,0.001,0.011,0.0,0.054,0.0,0.931,0.066,FL,258099011.95,786.645,789.133,101516103.816,0.044,0.759,0.116,0.0,0.054,0.001,0.929,0.067,1.5,Low-Medium (10-20%),1.5,Low-Medium (10-20%),Low-Medium
12112382397,Utah,UT,49,Utah County,49,Flexential,,Flexential Salt Lake City - Lindon,,-111.7278754,40.33264800000003,point,49049,56237,NWPP,WECC Northwest,0.026309895316390858,2.9203983801193854,False,NWPP,WECC Northwest,269253053.412,631.735,635.267,85048260.979,0.164,0.002,0.248,0.031,0.387,0.01,0.116,0.031,0.007,0.448,0.551,UT,32789440.038,1413.019,1421.234,23166056.111,0.454,0.361,0.0,0.021,0.12,0.023,0.816,0.181,3.8,High (40-80%),3.8,High (40-80%),High
12221811811,New York,NY,36,New York County,61,Digital Realty,JFK13,Digital Realty New York JFK13,,-74.00445830000001,40.71992800000002,point,36061,62366,NYCW,NPCC NYC/Westchester,0.00962634478347182,1.0685242709653722,False,NYCW,NPCC NYC/Westchester,34602268.097,864.469,865.744,14956294.376,0.0,0.005,0.982,0.0,0.0,0.005,0.0,0.001,0.0,0.994,0.006,NY,123473720.157,465.136,466.616,28716017.307,0.0,0.469,0.223,0.039,0.018,0.227,0.703,0.297,0.8,Low (<10%),0.8,Low (<10%),Low
12221880448,New York,NY,36,New York County,61,Digital Realty,JFK12,Digital Realty New York JFK12,,-74.0084414,40.7176766,point,36061,62366,NYCW,NPCC NYC/Westchester,0.008141161558391301,0.9036689329814345,False,NYCW,NPCC NYC/Westchester,34602268.097,864.469,865.744,14956294.376,0.0,0.005,0.982,0.0,0.0,0.005,0.0,0.001,0.0,0.994,0.006,NY,123473720.157,465.136,466.616,28716017.307,0.0,0.469,0.223,0.039,0.018,0.227,0.703,0.297,0.8,Low (<10%),0.8,Low (<10%),Low
12331366645,Georgia,GA,13,Fulton County,121,CoreSite,AT1,CoreSite AT1,,-84.3911712,33.75598569999999,point,13121,54290,SRSO,SERC South,0.003517290708758967,0.39041926867224536,False,SRSO,SERC South,256144699.488,842.329,846.007,107879089.335,0.145,0.001,0.554,0.204,0.024,0.036,0.0,0.036,0.0,0.905,0.095,GA,129220273.258,713.831,717.445,46120743.102,0.13,0.465,0.289,0.0,0.058,0.017,0.886,0.114,1.5,Low-Medium (10-20%),1.5,Low-Medium (10-20%),Low-Medium
12387534800,New Mexico,NM,35,Bernalillo County,1,UNM,UNM,UNM Data Center,,-106.6153476,35.08673849999998,point,35001,50906,AZNM,WECC Southwest,0.010196606484992614,1.1318233198341803,False,AZNM,WECC Southwest,175554659.519,703.703,706.189,61769179.175,0.111,0.0,0.487,0.18,0.026,0.003,0.077,0.082,0.036,0.777,0.223,NM,39258858.763,770.214,773.637,15118858.605,0.188,0.362,0.0,0.38,0.066,0.003,0.55,0.45,4.2,Extremely High (>80%),4.2,Extremely High (>80%),Extremely High
12437277166,California,CA,6,Santa Clara County,85,Prime,,Prime Santa Clara,,-121.9628653,37.3666621,point,06085,61476,CAMX,WECC California,0.012229476476950914,1.3574718889415514,False,CAMX,WECC California,220986983.331,428.464,429.983,47342486.547,0.021,0.0,0.429,0.08,0.141,0.022,0.066,0.201,0.036,0.537,0.465,CA,216080235.825,393.486,394.769,42512302.212,0.001,0.437,0.082,0.065,0.188,0.148,0.527,0.476,4.0,Extremely High (>80%),4.0,Extremely High (>80%),Extremely High
12452254071,New Jersey,NJ,34,Middlesex County,23,,,Open Data Centers Piscataway,,-74.4568563,40.55035010000003,point,34023,64380,RFCE,RFC East,0.00844919911586411,0.9378611018609161,False,RFCE,RFC East,284874108.51,596.904,599.17,85021258.145,0.047,0.001,0.541,0.364,0.011,0.009,0.01,0.01,0.0,0.96,0.04,NJ,64195046.033,468.31,470.168,15031580.67,0.0,0.515,0.441,0.0,0.024,0.0,0.968,0.032,1.2,Low-Medium (10-20%),1.2,Low-Medium (10-20%),Low-Medium
12471740457,New Jersey,NJ,34,Hudson County,17,H5,,H5 Secaucus,,-74.0750122,40.785394800000006,point,34017,60501,RFCE,RFC East,0.0033995766913013877,0.37735301273445404,False,RFCE,RFC East,284874108.51,596.904,599.17,85021258.145,0.047,0.001,0.541,0.364,0.011,0.009,0.01,0.01,0.0,0.96,0.04,NJ,64195046.033,468.31,470.168,15031580.67,0.0,0.515,0.441,0.0,0.024,0.0,0.968,0.032,1.2,Low-Medium (10-20%),1.2,Low-Medium (10-20%),Low-Medium
12550746951,California,CA,6,Santa Clara County,85,,,"Forescout Technologies, Inc.",,-121.9474176,37.322867500000015,point,06085,63715,CAMX,WECC California,0.02790799380121826,3.097787311935227,False,CAMX,WECC California,220986983.331,428.464,429.983,47342486.547,0.021,0.0,0.429,0.08,0.141,0.022,0.066,0.201,0.036,0.537,0.465,CA,216080235.825,393.486,394.769,42512302.212,0.001,0.437,0.082,0.065,0.188,0.148,0.527,0.476,4.0,Extremely High (>80%),4.0,Extremely High (>80%),Extremely High
12682482760,New York,NY,36,Albany County,1,Lumen Technologies,,Lumen Albany 4,,-73.818665,42.73563079999996,point,36001,55155,NYUP,NPCC Upstate NY,0.04486456848157135,4.97996710145442,False,NYUP,NPCC Upstate NY,85283183.254,242.089,242.776,10323051.399,0.0,0.001,0.255,0.323,0.329,0.012,0.056,0.021,0.0,0.582,0.418,NY,123473720.157,465.136,466.616,28716017.307,0.0,0.469,0.223,0.039,0.018,0.227,0.703,0.297,0.8,Low (<10%),0.8,Low (<10%),Low
12695496267,Illinois,IL,17,Cook County,31,Equinix,CH1,Equinix Chicago Data Center - CH1,,-87.6180475,41.8535578,point,17031,55067,RFCW,RFC West,0.0009666269652773786,0.10729559314578903,False,RFCW,RFC West,524352082.167,911.424,916.054,238953647.793,0.25,0.003,0.378,0.284,0.01,0.003,0.055,0.008,0.0,0.923,0.076,IL,177690286.567,471.705,474.436,41908695.063,0.153,0.16,0.549,0.123,0.011,0.001,0.863,0.135,1.5,Low-Medium (10-20%),1.5,Low-Medium (10-20%),Low-Medium
12708029111,New Jersey,NJ,34,Mercer County,21,,,501 West,,-74.6688514,40.315558000000024,point,34021,64194,RFCE,RFC East,0.013368960990278013,1.4839546699208594,False,RFCE,RFC East,284874108.51,596.904,599.17,85021258.145,0.047,0.001,0.541,0.364,0.011,0.009,0.01,0.01,0.0,0.96,0.04,NJ,64195046.033,468.31,470.168,15031580.67,0.0,0.515,0.441,0.0,0.024,0.0,0.968,0.032,1.2,Low-Medium (10-20%),1.2,Low-Medium (10-20%),Low-Medium
12766117170,New York,NY,36,Kings County,47,Dataverge,,Dataverge,,-74.0048163,40.65769569999999,point,36047,2494,NYCW,NPCC NYC/Westchester,0.00581122914538083,0.6450464351372721,False,NYCW,NPCC NYC/Westchester,34602268.097,864.469,865.744,14956294.376,0.0,0.005,0.982,0.0,0.0,0.005,0.0,0.001,0.0,0.994,0.006,NY,123473720.157,465.136,466.616,28716017.307,0.0,0.469,0.223,0.039,0.018,0.227,0.703,0.297,0.8,Low (<10%),0.8,Low (<10%),Low
12793428582,Oklahoma,OK,40,Tulsa County,143,,,TulsaConnect DC3,,-95.8382826,36.09947349999995,point,40143,55146,SPSO,SPP South,0.15090832861376163,16.75082447612754,False,SPSO,SPP South,158074959.653,872.042,875.567,68923985.645,0.162,0.005,0.461,0.0,0.025,0.012,0.325,0.004,0.0,0.63,0.367,OK,88878115.88,647.207,648.834,28761252.735,0.057,0.506,0.0,0.416,0.001,0.016,0.564,0.436,2.8,Medium-High (20-40%),2.8,Medium-High (20-40%),Medium-High
13019681063,Arizona,AZ,4,Maricopa County,13,,,Comarch,,-111.6352356,33.35667870000003,point,04013,64404,AZNM,WECC Southwest,0.03461621500178838,3.84239986519851,False,AZNM,WECC Southwest,175554659.519,703.703,706.189,61769179.175,0.111,0.0,0.487,0.18,0.026,0.003,0.077,0.082,0.036,0.777,0.223,AZ,111820945.514,686.688,689.104,38393040.736,0.108,0.472,0.282,0.016,0.066,0.054,0.862,0.138,4.5,Extremely High (>80%),4.5,Extremely High (>80%),Extremely High
13042311881,California,CA,6,Los Angeles County,37,CoreSite,LA2,CoreSite - LA2,,-118.23591439999998,34.0584789,point,06037,57313,CAMX,WECC California,0.006229504231474459,0.691474969693665,False,CAMX,WECC California,220986983.331,428.464,429.983,47342486.547,0.021,0.0,0.429,0.08,0.141,0.022,0.066,0.201,0.036,0.537,0.465,CA,216080235.825,393.486,394.769,42512302.212,0.001,0.437,0.082,0.065,0.188,0.148,0.527,0.476,4.0,Extremely High (>80%),4.0,Extremely High (>80%),Extremely High
13154826377,Virginia,VA,51,Loudoun County,107,Equinix,DC22,Equinix,,-77.45379770000001,39.013791700000006,point,51107,59004,SRVC,SERC Virginia/Carolina,0.10137646561099302,11.252787682820225,False,SRVC,SERC Virginia/Carolina,319478860.928,593.419,596.326,94792347.165,0.105,0.001,0.393,0.399,0.014,0.021,0.005,0.06,0.0,0.9,0.099,VA,91024103.437,536.851,539.599,24433203.526,0.016,0.556,0.326,0.001,0.059,0.0,0.904,0.096,1.0,Low-Medium (10-20%),1.0,Low-Medium (10-20%),Low-Medium
13154826378,Virginia,VA,51,Loudoun County,107,NTT,VA7,NTT Ashburn VA7 Data Center,,-77.47195400000001,39.01601419999996,point,51107,59004,SRVC,SERC Virginia/Carolina,0.08428066838393501,9.355154190616787,False,SRVC,SERC Virginia/Carolina,319478860.928,593.419,596.326,94792347.165,0.105,0.001,0.393,0.399,0.014,0.021,0.005,0.06,0.0,0.9,0.099,VA,91024103.437,536.851,539.599,24433203.526,0.016,0.556,0.326,0.001,0.059,0.0,0.904,0.096,1.0,Low-Medium (10-20%),1.0,Low-Medium (10-20%),Low-Medium
13154826379,Virginia,VA,51,Prince William County,153,NTT,VA11,NTT VA11 Data Center,,-77.6099636,38.79997309999995,point,51153,56368,SRVC,SERC Virginia/Carolina,0.04076953956774915,4.525418892020156,False,SRVC,SERC Virginia/Carolina,319478860.928,593.419,596.326,94792347.165,0.105,0.001,0.393,0.399,0.014,0.021,0.005,0.06,0.0,0.9,0.099,VA,91024103.437,536.851,539.599,24433203.526,0.016,0.556,0.326,0.001,0.059,0.0,0.904,0.096,1.0,Low-Medium (10-20%),1.0,Low-Medium (10-20%),Low-Medium
13226718075,Wisconsin,WI,55,Dane County,25,Lumen Technologies,,Lumen Madison 1 Data Center,,-89.3922794,43.067716100000005,point,55025,54408,MROE,MRO East,0.008628359262914963,0.9577478781835609,False,MROE,MRO East,24520967.706,1397.313,1404.963,17131736.788,0.395,0.003,0.429,0.0,0.043,0.03,0.054,0.047,0.0,0.827,0.173,WI,62538903.174,1156.996,1163.572,36178632.494,0.337,0.41,0.155,0.028,0.02,0.031,0.905,0.095,1.0,Low-Medium (10-20%),1.0,Low-Medium (10-20%),Low-Medium
13311012216,Nevada,NV,32,Clark County,3,Fiberhub,LAS1,Fiberhub LAS1,,-115.1398835,36.065940500000025,point,32003,60350,AZNM,WECC Southwest,0.04149336352356191,4.605763351115372,False,AZNM,WECC Southwest,175554659.519,703.703,706.189,61769179.175,0.111,0.0,0.487,0.18,0.026,0.003,0.077,0.082,0.036,0.777,0.223,NV,42162355.474,642.37,643.859,13541908.809,0.049,0.583,0.0,0.007,0.23,0.031,0.632,0.368,3.8,High (40-80%),3.8,High (40-80%),High
13409186015,Pennsylvania,PA,42,Montgomery County,91,,,DāStor: 3400 Horizon Drive,,-75.3397205,40.087918900000005,point,42091,54625,RFCE,RFC East,0.030702989063927995,3.408031786096007,False,RFCE,RFC East,284874108.51,596.904,599.17,85021258.145,0.047,0.001,0.541,0.364,0.011,0.009,0.01,0.01,0.0,0.96,0.04,PA,235912550.485,645.773,647.871,76172924.03,0.054,0.59,0.319,0.014,0.001,0.008,0.97,0.03,1.0,Low-Medium (10-20%),1.0,Low-Medium (10-20%),Low-Medium
13465438761,Texas,TX,48,Dallas County,113,,,Rad Web Hosting,,-96.798496,32.778446900000006,point,48113,67309,ERCT,ERCOT All,0.06779452442351182,7.525192211009812,False,ERCT,ERCOT All,477137386.101,733.862,736.629,175076531.801,0.127,0.0,0.496,0.085,0.001,0.002,0.226,0.059,0.0,0.712,0.287,TX,544038647.008,768.317,771.179,208997061.398,0.13,0.517,0.075,0.218,0.052,0.001,0.726,0.274,3.2,High (40-80%),3.2,High (40-80%),High
13527396782,Washington,WA,53,Snohomish County,61,,,,,-122.19153160000002,47.95874409999997,point,53061,60016,NWPP,WECC Northwest,0.05980007979230975,6.637808856946382,False,NWPP,WECC Northwest,269253053.412,631.735,635.267,85048260.979,0.164,0.002,0.248,0.031,0.387,0.01,0.116,0.031,0.007,0.448,0.551,WA,102953150.197,265.119,266.585,13647438.613,0.04,0.189,0.082,0.073,0.004,0.597,0.314,0.686,1.2,Low-Medium (10-20%),1.2,Low-Medium (10-20%),Low-Medium
1455361421,Texas,TX,48,Ward County,475,IONIC Digital,,IONIC Digital Cedarvale,2238928.0,-103.44862076924288,31.513473610030378,building,48475,65810,ERCT,ERCOT All,0.0037933155932770484,0.4210580308537524,False,ERCT,ERCOT All,477137386.101,733.862,736.629,175076531.801,0.127,0.0,0.496,0.085,0.001,0.002,0.226,0.059,0.0,0.712,0.287,TX,544038647.008,768.317,771.179,208997061.398,0.13,0.517,0.075,0.218,0.052,0.001,0.726,0.274,3.2,High (40-80%),3.2,High (40-80%),High
300974499,Arizona,AZ,4,Maricopa County,13,Apple Inc.,,Apple Data Center,1338261.0,-111.60405623426205,33.34701915860399,building,04013,64404,AZNM,WECC Southwest,0.002056323513575596,0.22825191000689118,False,AZNM,WECC Southwest,175554659.519,703.703,706.189,61769179.175,0.111,0.0,0.487,0.18,0.026,0.003,0.077,0.082,0.036,0.777,0.223,AZ,111820945.514,686.688,689.104,38393040.736,0.108,0.472,0.282,0.016,0.066,0.054,0.862,0.138,4.5,Extremely High (>80%),4.5,Extremely High (>80%),Extremely High
567575425,Arizona,AZ,4,Maricopa County,13,,,,1263277.0,-111.60413892780116,33.34702102097167,building,04013,64404,AZNM,WECC Southwest,0.0021390310936938717,0.23743245140001976,False,AZNM,WECC Southwest,175554659.519,703.703,706.189,61769179.175,0.111,0.0,0.487,0.18,0.026,0.003,0.077,0.082,0.036,0.777,0.223,AZ,111820945.514,686.688,689.104,38393040.736,0.108,0.472,0.282,0.016,0.066,0.054,0.862,0.138,4.5,Extremely High (>80%),4.5,Extremely High (>80%),Extremely High
1386926534,Tennessee,TN,47,Shelby County,157,xAI,,xAI Macrohard Colossus 2,961601.0,-90.03486737827305,34.997983048006375,building,47157,55269,SRTV,SERC Tennessee Valley,0.005027081779300069,0.5580060775023077,False,SRTV,SERC Tennessee Valley,209324307.73,898.079,903.306,93994898.715,0.282,0.001,0.298,0.328,0.076,0.007,0.0,0.008,0.0,0.909,0.091,TN,77754006.807,657.267,661.166,25552566.613,0.203,0.193,0.488,0.0,0.012,0.096,0.885,0.115,1.2,Low-Medium (10-20%),1.2,Low-Medium (10-20%),Low-Medium
1160814416,Alabama,AL,1,Madison County,89,Meta,,Meta Huntsville Data center,857148.0,-86.62884123942305,34.84043160671047,building,01089,61901,SRTV,SERC Tennessee Valley,0.2300951540728917,25.540562102090977,False,SRTV,SERC Tennessee Valley,209324307.73,898.079,903.306,93994898.715,0.282,0.001,0.298,0.328,0.076,0.007,0.0,0.008,0.0,0.909,0.091,AL,138596256.477,710.988,713.976,49270107.591,0.137,0.442,0.329,0.0,0.009,0.061,0.908,0.092,1.0,Low-Medium (10-20%),1.0,Low-Medium (10-20%),Low-Medium
204316962,New Jersey,NJ,34,Middlesex County,23,,,IO Datacenter,829908.0,-74.34731684357497,40.52090133887192,building,34023,62957,RFCE,RFC East,0.00042571146811605764,0.0472539729608824,False,RFCE,RFC East,284874108.51,596.904,599.17,85021258.145,0.047,0.001,0.541,0.364,0.011,0.009,0.01,0.01,0.0,0.96,0.04,NJ,64195046.033,468.31,470.168,15031580.67,0.0,0.515,0.441,0.0,0.024,0.0,0.968,0.032,1.2,Low-Medium (10-20%),1.2,Low-Medium (10-20%),Low-Medium
1077131079,Mississippi,MS,28,DeSoto County,33,xAI,,xAI Macrohardrr,812955.0,-90.03416995691286,34.99348804291279,building,28033,55269,SRTV,SERC Tennessee Valley,0.003653343873249146,0.40552116993065523,False,SRTV,SERC Tennessee Valley,209324307.73,898.079,903.306,93994898.715,0.282,0.001,0.298,0.328,0.076,0.007,0.0,0.008,0.0,0.909,0.091,MS,72933440.201,826.335,828.274,30133709.322,0.055,0.756,0.161,0.0,0.009,0.0,0.973,0.027,1.0,Low-Medium (10-20%),1.0,Low-Medium (10-20%),Low-Medium
1381264361,Tennessee,TN,47,Shelby County,157,,,xAI Colossus,776966.0,-90.15645222216364,35.05996022239821,building,47157,3393,SRTV,SERC Tennessee Valley,0.016123687009219848,1.7897292580234032,False,SRTV,SERC Tennessee Valley,209324307.73,898.079,903.306,93994898.715,0.282,0.001,0.298,0.328,0.076,0.007,0.0,0.008,0.0,0.909,0.091,TN,77754006.807,657.267,661.166,25552566.613,0.203,0.193,0.488,0.0,0.012,0.096,0.885,0.115,1.2,Low-Medium (10-20%),1.2,Low-Medium (10-20%),Low-Medium
1070895993,Georgia,GA,13,Newton County,217,Meta,,,763506.0,-83.69683907912508,33.60009367954904,building,13217,58628,SRSO,SERC South,0.08074267007169678,8.962436377958342,False,SRSO,SERC South,256144699.488,842.329,846.007,107879089.335,0.145,0.001,0.554,0.204,0.024,0.036,0.0,0.036,0.0,0.905,0.095,GA,129220273.258,713.831,717.445,46120743.102,0.13,0.465,0.289,0.0,0.058,0.017,0.886,0.114,1.5,Low-Medium (10-20%),1.5,Low-Medium (10-20%),Low-Medium
815057182,Texas,TX,48,Tarrant County,439,Meta,,Facebook Fort Worth Datacenter,753193.0,-97.2554600255551,32.98829583281708,building,48439,64890,ERCT,ERCOT All,0.09817243091026652,10.897139831039583,False,ERCT,ERCOT All,477137386.101,733.862,736.629,175076531.801,0.127,0.0,0.496,0.085,0.001,0.002,0.226,0.059,0.0,0.712,0.287,TX,544038647.008,768.317,771.179,208997061.398,0.13,0.517,0.075,0.218,0.052,0.001,0.726,0.274,3.2,High (40-80%),3.2,High (40-80%),High
269847438,Georgia,GA,13,Fulton County,121,Quality Technology Services,,QTS Atlanta Data Center 1,719736.0,-84.42109985598158,33.7776811736858,building,13121,62393,SRSO,SERC South,0.030036934142891054,3.334099689860907,False,SRSO,SERC South,256144699.488,842.329,846.007,107879089.335,0.145,0.001,0.554,0.204,0.024,0.036,0.0,0.036,0.0,0.905,0.095,GA,129220273.258,713.831,717.445,46120743.102,0.13,0.465,0.289,0.0,0.058,0.017,0.886,0.114,1.5,Low-Medium (10-20%),1.5,Low-Medium (10-20%),Low-Medium
1069388186,South Carolina,SC,45,Berkeley County,15,Google,,Google,697831.0,-80.04505685925874,33.062000589098496,building,45015,57945,SRVC,SERC Virginia/Carolina,0.061137566611518326,6.786269893878535,False,SRVC,SERC Virginia/Carolina,319478860.928,593.419,596.326,94792347.165,0.105,0.001,0.393,0.399,0.014,0.021,0.005,0.06,0.0,0.9,0.099,SC,100853387.4,557.173,560.363,28096403.536,0.15,0.235,0.552,0.0,0.027,0.017,0.938,0.062,1.0,Low-Medium (10-20%),1.0,Low-Medium (10-20%),Low-Medium
844394339,Nebraska,NE,31,Sarpy County,153,Meta,,Meta Sarpy Data center,666382.0,-96.14419028998032,41.12354217069119,building,31153,2292,MROW,MRO West,0.17985111032189038,19.963473245729833,False,MROW,MRO West,240934538.663,920.13,926.552,110845559.8,0.352,0.001,0.131,0.078,0.041,0.007,0.376,0.012,0.0,0.564,0.435,NE,39445955.006,1018.154,1025.822,20081034.174,0.454,0.036,0.176,0.3,0.002,0.029,0.666,0.334,2.3,Medium-High (20-40%),2.3,Medium-High (20-40%),Medium-High
802160675,Ohio,OH,39,Licking County,89,Meta,,Meta New Albany Data Center,663286.0,-82.74890966242867,40.06527171787832,building,39089,58475,RFCW,RFC West,0.21238657253599774,23.57490955149575,False,RFCW,RFC West,524352082.167,911.424,916.054,238953647.793,0.25,0.003,0.378,0.284,0.01,0.003,0.055,0.008,0.0,0.923,0.076,OH,133121090.814,1063.843,1068.27,70809976.727,0.236,0.591,0.122,0.021,0.01,0.004,0.962,0.038,1.2,Low-Medium (10-20%),1.2,Low-Medium (10-20%),Low-Medium
671301768,Ohio,OH,39,Licking County,89,Meta,,Meta New Albany Data Center,663238.0,-82.7503408359755,40.06840826479164,building,39089,58475,RFCW,RFC West,0.2089396890217922,23.192305481418934,False,RFCW,RFC West,524352082.167,911.424,916.054,238953647.793,0.25,0.003,0.378,0.284,0.01,0.003,0.055,0.008,0.0,0.923,0.076,OH,133121090.814,1063.843,1068.27,70809976.727,0.236,0.591,0.122,0.021,0.01,0.004,0.962,0.038,1.2,Low-Medium (10-20%),1.2,Low-Medium (10-20%),Low-Medium
1054387471,Georgia,GA,13,Newton County,217,Meta,,,660258.0,-83.70541734238208,33.6013709927818,building,13217,58628,SRSO,SERC South,0.08219381756697844,9.123513749934606,False,SRSO,SERC South,256144699.488,842.329,846.007,107879089.335,0.145,0.001,0.554,0.204,0.024,0.036,0.0,0.036,0.0,0.905,0.095,GA,129220273.258,713.831,717.445,46120743.102,0.13,0.465,0.289,0.0,0.058,0.017,0.886,0.114,1.5,Low-Medium (10-20%),1.5,Low-Medium (10-20%),Low-Medium
777679751,New Mexico,NM,35,Valencia County,61,Meta,1,Meta,654617.0,-106.77647063706308,34.83028297052059,building,35061,57571,AZNM,WECC Southwest,0.004960261661058685,0.550589044377514,False,AZNM,WECC Southwest,175554659.519,703.703,706.189,61769179.175,0.111,0.0,0.487,0.18,0.026,0.003,0.077,0.082,0.036,0.777,0.223,NM,39258858.763,770.214,773.637,15118858.605,0.188,0.362,0.0,0.38,0.066,0.003,0.55,0.45,4.2,Extremely High (>80%),4.2,Extremely High (>80%),Extremely High
626785488,New Mexico,NM,35,Valencia County,61,Meta,3,Meta,654433.0,-106.78382909936067,34.830246608460115,building,35061,57571,AZNM,WECC Southwest,0.011776073542727061,1.3071441632427037,False,AZNM,WECC Southwest,175554659.519,703.703,706.189,61769179.175,0.111,0.0,0.487,0.18,0.026,0.003,0.077,0.082,0.036,0.777,0.223,NM,39258858.763,770.214,773.637,15118858.605,0.188,0.362,0.0,0.38,0.066,0.003,0.55,0.45,4.2,Extremely High (>80%),4.2,Extremely High (>80%),Extremely High
1015704066,Arizona,AZ,4,Maricopa County,13,EdgeConneX,,EdgeConneX PHX02 Data Center,654105.0,-111.64752987065916,33.35201067934632,building,04013,64404,AZNM,WECC Southwest,0.0458047599027719,5.084328349207681,False,AZNM,WECC Southwest,175554659.519,703.703,706.189,61769179.175,0.111,0.0,0.487,0.18,0.026,0.003,0.077,0.082,0.036,0.777,0.223,AZ,111820945.514,686.688,689.104,38393040.736,0.108,0.472,0.282,0.016,0.066,0.054,0.862,0.138,4.5,Extremely High (>80%),4.5,Extremely High (>80%),Extremely High
1456975948,Arizona,AZ,4,Maricopa County,13,,,,652573.0,-111.6289166123353,33.346322514530925,building,04013,64404,AZNM,WECC Southwest,0.026925137068714695,2.988690214627331,False,AZNM,WECC Southwest,175554659.519,703.703,706.189,61769179.175,0.111,0.0,0.487,0.18,0.026,0.003,0.077,0.082,0.036,0.777,0.223,AZ,111820945.514,686.688,689.104,38393040.736,0.108,0.472,0.282,0.016,0.066,0.054,0.862,0.138,4.5,Extremely High (>80%),4.5,Extremely High (>80%),Extremely High
1456975947,Arizona,AZ,4,Maricopa County,13,,,,652528.0,-111.6324625173746,33.34718733044236,building,04013,64404,AZNM,WECC Southwest,0.030463093367098314,3.381403363747913,False,AZNM,WECC Southwest,175554659.519,703.703,706.189,61769179.175,0.111,0.0,0.487,0.18,0.026,0.003,0.077,0.082,0.036,0.777,0.223,AZ,111820945.514,686.688,689.104,38393040.736,0.108,0.472,0.282,0.016,0.066,0.054,0.862,0.138,4.5,Extremely High (>80%),4.5,Extremely High (>80%),Extremely High
500820007,Texas,TX,48,Tarrant County,439,Meta,,Facebook Fort Worth Datacenter,634395.0,-97.25934313221772,32.98378403788744,building,48439,64890,ERCT,ERCOT All,0.09269103443841376,10.288704822663927,False,ERCT,ERCOT All,477137386.101,733.862,736.629,175076531.801,0.127,0.0,0.496,0.085,0.001,0.002,0.226,0.059,0.0,0.712,0.287,TX,544038647.008,768.317,771.179,208997061.398,0.13,0.517,0.075,0.218,0.052,0.001,0.726,0.274,3.2,High (40-80%),3.2,High (40-80%),High
383796776,Ohio,OH,39,Erie County,43,Aligned Data Centers,,,633484.0,-82.71902751224367,41.4324305009821,building,39043,57249,RFCW,RFC West,0.15151154392061472,16.817781375188233,False,RFCW,RFC West,524352082.167,911.424,916.054,238953647.793,0.25,0.003,0.378,0.284,0.01,0.003,0.055,0.008,0.0,0.923,0.076,OH,133121090.814,1063.843,1068.27,70809976.727,0.236,0.591,0.122,0.021,0.01,0.004,0.962,0.038,1.2,Low-Medium (10-20%),1.2,Low-Medium (10-20%),Low-Medium
772827597,Oregon,OR,41,Crook County,13,,,,630160.0,-120.879434601439,44.29909531760913,building,41013,61048,NWPP,WECC Northwest,0.12110018542987613,13.442120582716251,False,NWPP,WECC Northwest,269253053.412,631.735,635.267,85048260.979,0.164,0.002,0.248,0.031,0.387,0.01,0.116,0.031,0.007,0.448,0.551,OR,61683300.013,364.162,364.963,11231359.308,0.0,0.379,0.0,0.145,0.031,0.427,0.38,0.621,1.5,Low-Medium (10-20%),1.5,Low-Medium (10-20%),Low-Medium
1116775094,Nevada,NV,32,Storey County,29,,,,628883.0,-119.4755137508722,39.514067828488315,building,32029,64098,NWPP,WECC Northwest,0.04437449265123627,4.925568684287226,False,NWPP,WECC Northwest,269253053.412,631.735,635.267,85048260.979,0.164,0.002,0.248,0.031,0.387,0.01,0.116,0.031,0.007,0.448,0.551,NV,42162355.474,642.37,643.859,13541908.809,0.049,0.583,0.0,0.007,0.23,0.031,0.632,0.368,3.8,High (40-80%),3.8,High (40-80%),High
1253282100,Nebraska,NE,31,Sarpy County,153,Meta,,Meta Sarpy Data center,628560.0,-96.13289444072416,41.123572980157554,building,31153,2292,MROW,MRO West,0.1689659375121139,18.755219063844642,False,MROW,MRO West,240934538.663,920.13,926.552,110845559.8,0.352,0.001,0.131,0.078,0.041,0.007,0.376,0.012,0.0,0.564,0.435,NE,39445955.006,1018.154,1025.822,20081034.174,0.454,0.036,0.176,0.3,0.002,0.029,0.666,0.334,2.3,Medium-High (20-40%),2.3,Medium-High (20-40%),Medium-High
1035123473,Utah,UT,49,Utah County,49,Meta,,Meta Eagle Mountain Data Center,628165.0,-112.01505471830352,40.27233431054834,building,49049,56237,NWPP,WECC Northwest,0.26754956475237573,29.698001687513706,False,NWPP,WECC Northwest,269253053.412,631.735,635.267,85048260.979,0.164,0.002,0.248,0.031,0.387,0.01,0.116,0.031,0.007,0.448,0.551,UT,32789440.038,1413.019,1421.234,23166056.111,0.454,0.361,0.0,0.021,0.12,0.023,0.816,0.181,3.8,High (40-80%),3.8,High (40-80%),High
830931210,Iowa,IA,19,Polk County,153,Meta,,Facebook Altoona Data Center 5,628003.0,-93.51662854518422,41.67117312225116,building,19153,10861,MROW,MRO West,0.0824180950961984,9.14840855567802,False,MROW,MRO West,240934538.663,920.13,926.552,110845559.8,0.352,0.001,0.131,0.078,0.041,0.007,0.376,0.012,0.0,0.564,0.435,IA,69819809.048,630.187,634.156,21999770.946,0.235,0.147,0.0,0.593,0.007,0.014,0.383,0.617,1.5,Low-Medium (10-20%),1.5,Low-Medium (10-20%),Low-Medium
1312795640,Tennessee,TN,47,Sumner County,165,Meta,,Meta Gallatin Data Center,626683.0,-86.36660783519794,36.40604868216981,building,47165,3403,SRTV,SERC Tennessee Valley,0.09662521086230624,10.725398405715993,False,SRTV,SERC Tennessee Valley,209324307.73,898.079,903.306,93994898.715,0.282,0.001,0.298,0.328,0.076,0.007,0.0,0.008,0.0,0.909,0.091,TN,77754006.807,657.267,661.166,25552566.613,0.203,0.193,0.488,0.0,0.012,0.096,0.885,0.115,1.2,Low-Medium (10-20%),1.2,Low-Medium (10-20%),Low-Medium
1294595615,Tennessee,TN,47,Sumner County,165,Meta,,Meta Gallatin Data Center,626571.0,-86.36966140352041,36.411865445114714,building,47165,3403,SRTV,SERC Tennessee Valley,0.10111494783295087,11.223759209457548,False,SRTV,SERC Tennessee Valley,209324307.73,898.079,903.306,93994898.715,0.282,0.001,0.298,0.328,0.076,0.007,0.0,0.008,0.0,0.909,0.091,TN,77754006.807,657.267,661.166,25552566.613,0.203,0.193,0.488,0.0,0.012,0.096,0.885,0.115,1.2,Low-Medium (10-20%),1.2,Low-Medium (10-20%),Low-Medium
1312795639,Tennessee,TN,47,Sumner County,165,Meta,,Meta Gallatin Data Center,626568.0,-86.3660125010422,36.41135065140836,building,47165,3403,SRTV,SERC Tennessee Valley,0.10180610163089333,11.30047728102916,False,SRTV,SERC Tennessee Valley,209324307.73,898.079,903.306,93994898.715,0.282,0.001,0.298,0.328,0.076,0.007,0.0,0.008,0.0,0.909,0.091,TN,77754006.807,657.267,661.166,25552566.613,0.203,0.193,0.488,0.0,0.012,0.096,0.885,0.115,1.2,Low-Medium (10-20%),1.2,Low-Medium (10-20%),Low-Medium
1024051997,Utah,UT,49,Utah County,49,Meta,,Meta Eagle Mountain Data Center,626371.0,-112.01512736677896,40.2655639892377,building,49049,56237,NWPP,WECC Northwest,0.2692023793751645,29.88146411064326,False,NWPP,WECC Northwest,269253053.412,631.735,635.267,85048260.979,0.164,0.002,0.248,0.031,0.387,0.01,0.116,0.031,0.007,0.448,0.551,UT,32789440.038,1413.019,1421.234,23166056.111,0.454,0.361,0.0,0.021,0.12,0.023,0.816,0.181,3.8,High (40-80%),3.8,High (40-80%),High
1253282101,Nebraska,NE,31,Sarpy County,153,Meta,,Meta Sarpy Data center,625288.0,-96.1428365153122,41.114329237977906,building,31153,2292,MROW,MRO West,0.1811908034150773,20.11217917907358,False,MROW,MRO West,240934538.663,920.13,926.552,110845559.8,0.352,0.001,0.131,0.078,0.041,0.007,0.376,0.012,0.0,0.564,0.435,NE,39445955.006,1018.154,1025.822,20081034.174,0.454,0.036,0.176,0.3,0.002,0.029,0.666,0.334,2.3,Medium-High (20-40%),2.3,Medium-High (20-40%),Medium-High
772827601,Oregon,OR,41,Crook County,13,,,,622980.0,-120.88988386659982,44.30125484226488,building,41013,61048,NWPP,WECC Northwest,0.12028695725880433,13.35185225572728,False,NWPP,WECC Northwest,269253053.412,631.735,635.267,85048260.979,0.164,0.002,0.248,0.031,0.387,0.01,0.116,0.031,0.007,0.448,0.551,OR,61683300.013,364.162,364.963,11231359.308,0.0,0.379,0.0,0.145,0.031,0.427,0.38,0.621,1.5,Low-Medium (10-20%),1.5,Low-Medium (10-20%),Low-Medium
1184066765,Missouri,MO,29,Clay County,47,Meta,,Meta Data Center,615937.0,-94.59806356908612,39.322650867796824,building,29047,1295,SPNO,SPP North,0.17801157080311747,19.75928435914604,False,SPNO,SPP North,73458953.049,861.999,867.74,31660769.923,0.316,0.002,0.14,0.14,0.001,0.001,0.397,0.002,0.0,0.599,0.401,MO,66705178.956,1444.137,1454.593,48165698.608,0.605,0.139,0.138,0.102,0.003,0.011,0.883,0.117,1.8,Low-Medium (10-20%),1.8,Low-Medium (10-20%),Low-Medium
1252196813,Ohio,OH,39,Licking County,89,Meta,,Meta New Albany Data Center,608761.0,-82.75098831560908,40.060379703786474,building,39089,58475,RFCW,RFC West,0.21608894846881602,23.98587328003858,False,RFCW,RFC West,524352082.167,911.424,916.054,238953647.793,0.25,0.003,0.378,0.284,0.01,0.003,0.055,0.008,0.0,0.923,0.076,OH,133121090.814,1063.843,1068.27,70809976.727,0.236,0.591,0.122,0.021,0.01,0.004,0.962,0.038,1.2,Low-Medium (10-20%),1.2,Low-Medium (10-20%),Low-Medium
788027103,Iowa,IA,19,Polk County,153,Meta,,Facebook Altoona Data Center 4,606958.0,-93.5163985612244,41.66773731235317,building,19153,10861,MROW,MRO West,0.08071356566108202,8.959205788380105,False,MROW,MRO West,240934538.663,920.13,926.552,110845559.8,0.352,0.001,0.131,0.078,0.041,0.007,0.376,0.012,0.0,0.564,0.435,IA,69819809.048,630.187,634.156,21999770.946,0.235,0.147,0.0,0.593,0.007,0.014,0.383,0.617,1.5,Low-Medium (10-20%),1.5,Low-Medium (10-20%),Low-Medium
1132541700,Virginia,VA,51,Henrico County,87,Meta,,Meta Henrico Data Center,604696.0,-77.22645499748526,37.47784537590615,building,51087,65022,SRVC,SERC Virginia/Carolina,0.058952636986119834,6.543742705459302,False,SRVC,SERC Virginia/Carolina,319478860.928,593.419,596.326,94792347.165,0.105,0.001,0.393,0.399,0.014,0.021,0.005,0.06,0.0,0.9,0.099,VA,91024103.437,536.851,539.599,24433203.526,0.016,0.556,0.326,0.001,0.059,0.0,0.904,0.096,1.0,Low-Medium (10-20%),1.0,Low-Medium (10-20%),Low-Medium
1253282104,Iowa,IA,19,Polk County,153,Meta,,Meta,601076.0,-93.50603124097204,41.67582283535729,building,19153,10861,MROW,MRO West,0.09380885744883372,10.412783176820543,False,MROW,MRO West,240934538.663,920.13,926.552,110845559.8,0.352,0.001,0.131,0.078,0.041,0.007,0.376,0.012,0.0,0.564,0.435,IA,69819809.048,630.187,634.156,21999770.946,0.235,0.147,0.0,0.593,0.007,0.014,0.383,0.617,1.5,Low-Medium (10-20%),1.5,Low-Medium (10-20%),Low-Medium
1191496040,New Mexico,NM,35,Valencia County,61,Meta,4,Meta,588490.0,-106.77888911307576,34.825839640241206,building,35061,57571,AZNM,WECC Southwest,0.009755865225591768,1.0829010400406862,False,AZNM,WECC Southwest,175554659.519,703.703,706.189,61769179.175,0.111,0.0,0.487,0.18,0.026,0.003,0.077,0.082,0.036,0.777,0.223,NM,39258858.763,770.214,773.637,15118858.605,0.188,0.362,0.0,0.38,0.066,0.003,0.55,0.45,4.2,Extremely High (>80%),4.2,Extremely High (>80%),Extremely High
1340746574,New Mexico,NM,35,Valencia County,61,Meta,5,Meta,588461.0,-106.78246827061648,34.825823197722954,building,35061,57571,AZNM,WECC Southwest,0.012433243515424193,1.3800900302120853,False,AZNM,WECC Southwest,175554659.519,703.703,706.189,61769179.175,0.111,0.0,0.487,0.18,0.026,0.003,0.077,0.082,0.036,0.777,0.223,NM,39258858.763,770.214,773.637,15118858.605,0.188,0.362,0.0,0.38,0.066,0.003,0.55,0.45,4.2,Extremely High (>80%),4.2,Extremely High (>80%),Extremely High
762116506,Virginia,VA,51,Henrico County,87,Meta,,Meta Henrico Data Center,588189.0,-77.23731114669016,37.483928208517945,building,51087,65022,SRVC,SERC Virginia/Carolina,0.04761385341397983,5.285137728951761,False,SRVC,SERC Virginia/Carolina,319478860.928,593.419,596.326,94792347.165,0.105,0.001,0.393,0.399,0.014,0.021,0.005,0.06,0.0,0.9,0.099,VA,91024103.437,536.851,539.599,24433203.526,0.016,0.556,0.326,0.001,0.059,0.0,0.904,0.096,1.0,Low-Medium (10-20%),1.0,Low-Medium (10-20%),Low-Medium
1160814413,Alabama,AL,1,Madison County,89,Meta,,Meta Huntsville Data center,578342.0,-86.6269185980179,34.847333791994075,building,01089,61901,SRTV,SERC Tennessee Valley,0.23684587637265536,26.289892277364746,False,SRTV,SERC Tennessee Valley,209324307.73,898.079,903.306,93994898.715,0.282,0.001,0.298,0.328,0.076,0.007,0.0,0.008,0.0,0.909,0.091,AL,138596256.477,710.988,713.976,49270107.591,0.137,0.442,0.329,0.0,0.009,0.061,0.908,0.092,1.0,Low-Medium (10-20%),1.0,Low-Medium (10-20%),Low-Medium
1312792611,Illinois,IL,17,DeKalb County,37,Meta,,,568454.0,-88.72185807435966,41.88853040860736,building,17037,63949,RFCW,RFC West,0.047206467978840455,5.239917945651291,False,RFCW,RFC West,524352082.167,911.424,916.054,238953647.793,0.25,0.003,0.378,0.284,0.01,0.003,0.055,0.008,0.0,0.923,0.076,IL,177690286.567,471.705,474.436,41908695.063,0.153,0.16,0.549,0.123,0.011,0.001,0.863,0.135,1.5,Low-Medium (10-20%),1.5,Low-Medium (10-20%),Low-Medium
1312792612,Illinois,IL,17,DeKalb County,37,Meta,,,568442.0,-88.73105377072714,41.88928381978822,building,17037,65799,RFCW,RFC West,0.04020342685062562,4.4625803804194435,False,RFCW,RFC West,524352082.167,911.424,916.054,238953647.793,0.25,0.003,0.378,0.284,0.01,0.003,0.055,0.008,0.0,0.923,0.076,IL,177690286.567,471.705,474.436,41908695.063,0.153,0.16,0.549,0.123,0.011,0.001,0.863,0.135,1.5,Low-Medium (10-20%),1.5,Low-Medium (10-20%),Low-Medium
116005354,North Carolina,NC,37,Catawba County,35,,,,564402.0,-81.26252687782907,35.588012637841835,building,37035,57994,SRVC,SERC Virginia/Carolina,0.010547587612307039,1.1707822249660813,False,SRVC,SERC Virginia/Carolina,319478860.928,593.419,596.326,94792347.165,0.105,0.001,0.393,0.399,0.014,0.021,0.005,0.06,0.0,0.9,0.099,NC,126510680.084,623.958,626.438,39468698.057,0.112,0.409,0.335,0.004,0.09,0.033,0.857,0.141,1.2,Low-Medium (10-20%),1.2,Low-Medium (10-20%),Low-Medium
701923203,Virginia,VA,51,Loudoun County,107,Digital Realty,IAD39,Digital Realty Northern Virginia IAD39,549223.0,-77.46762344628391,39.0077179647985,building,51107,59004,SRVC,SERC Virginia/Carolina,0.09230952742228528,10.246357543873666,False,SRVC,SERC Virginia/Carolina,319478860.928,593.419,596.326,94792347.165,0.105,0.001,0.393,0.399,0.014,0.021,0.005,0.06,0.0,0.9,0.099,VA,91024103.437,536.851,539.599,24433203.526,0.016,0.556,0.326,0.001,0.059,0.0,0.904,0.096,1.0,Low-Medium (10-20%),1.0,Low-Medium (10-20%),Low-Medium
756778306,New Mexico,NM,35,Valencia County,61,Meta,2,Meta,543736.0,-106.78034710972685,34.83004000903251,building,35061,57571,AZNM,WECC Southwest,0.008516763307056181,0.945360727083236,False,AZNM,WECC Southwest,175554659.519,703.703,706.189,61769179.175,0.111,0.0,0.487,0.18,0.026,0.003,0.077,0.082,0.036,0.777,0.223,NM,39258858.763,770.214,773.637,15118858.605,0.188,0.362,0.0,0.38,0.066,0.003,0.55,0.45,4.2,Extremely High (>80%),4.2,Extremely High (>80%),Extremely High
844394340,Nebraska,NE,31,Sarpy County,153,Meta,,Meta Sarpy Data center,515084.0,-96.14485433047682,41.120731999310195,building,31153,2292,MROW,MRO West,0.18124498692578886,20.118193548762562,False,MROW,MRO West,240934538.663,920.13,926.552,110845559.8,0.352,0.001,0.131,0.078,0.041,0.007,0.376,0.012,0.0,0.564,0.435,NE,39445955.006,1018.154,1025.822,20081034.174,0.454,0.036,0.176,0.3,0.002,0.029,0.666,0.334,2.3,Medium-High (20-40%),2.3,Medium-High (20-40%),Medium-High
155739337,Arizona,AZ,4,Maricopa County,13,,,Aligned Energy Data Center,512814.0,-112.11116815143932,33.65904093265778,building,04013,58293,AZNM,WECC Southwest,0.11282435427368016,12.523503324378499,False,AZNM,WECC Southwest,175554659.519,703.703,706.189,61769179.175,0.111,0.0,0.487,0.18,0.026,0.003,0.077,0.082,0.036,0.777,0.223,AZ,111820945.514,686.688,689.104,38393040.736,0.108,0.472,0.282,0.016,0.066,0.054,0.862,0.138,4.5,Extremely High (>80%),4.5,Extremely High (>80%),Extremely High
435817145,Virginia,VA,51,Loudoun County,107,CyrusOne,NVA5,CyrusOne NVA5,506948.0,-77.43403366059391,39.024327100481464,building,51107,59004,SRVC,SERC Virginia/Carolina,0.11597916685300715,12.873687520683793,False,SRVC,SERC Virginia/Carolina,319478860.928,593.419,596.326,94792347.165,0.105,0.001,0.393,0.399,0.014,0.021,0.005,0.06,0.0,0.9,0.099,VA,91024103.437,536.851,539.599,24433203.526,0.016,0.556,0.326,0.001,0.059,0.0,0.904,0.096,1.0,Low-Medium (10-20%),1.0,Low-Medium (10-20%),Low-Medium
1470108469,Washington,WA,53,Grant County,25,,,,504350.0,-119.86320668797936,47.24017868896512,building,53025,7113,NWPP,WECC Northwest,0.0871554139301748,9.674250946249403,False,NWPP,WECC Northwest,269253053.412,631.735,635.267,85048260.979,0.164,0.002,0.248,0.031,0.387,0.01,0.116,0.031,0.007,0.448,0.551,WA,102953150.197,265.119,266.585,13647438.613,0.04,0.189,0.082,0.073,0.004,0.597,0.314,0.686,1.2,Low-Medium (10-20%),1.2,Low-Medium (10-20%),Low-Medium
794147654,Virginia,VA,51,Loudoun County,107,CloudHQ,LC1,CloudHQ LC1,499194.0,-77.46278492885698,39.01015664517334,building,51107,59004,SRVC,SERC Virginia/Carolina,0.09515075467836326,10.561733769298321,False,SRVC,SERC Virginia/Carolina,319478860.928,593.419,596.326,94792347.165,0.105,0.001,0.393,0.399,0.014,0.021,0.005,0.06,0.0,0.9,0.099,VA,91024103.437,536.851,539.599,24433203.526,0.016,0.556,0.326,0.001,0.059,0.0,0.904,0.096,1.0,Low-Medium (10-20%),1.0,Low-Medium (10-20%),Low-Medium
1253282103,Iowa,IA,19,Polk County,153,Meta,,Meta,493366.0,-93.50965654880696,41.67557150002093,building,19153,10861,MROW,MRO West,0.09065551576937296,10.062762250400398,False,MROW,MRO West,240934538.663,920.13,926.552,110845559.8,0.352,0.001,0.131,0.078,0.041,0.007,0.376,0.012,0.0,0.564,0.435,IA,69819809.048,630.187,634.156,21999770.946,0.235,0.147,0.0,0.593,0.007,0.014,0.383,0.617,1.5,Low-Medium (10-20%),1.5,Low-Medium (10-20%),Low-Medium
199252950,Illinois,IL,17,DuPage County,43,CyrusOne,,CyrusOne Chicago Aurora CME,483103.0,-88.24360276085451,41.796710709040994,building,17043,55279,RFCW,RFC West,0.025113152944661984,2.78755997685748,False,RFCW,RFC West,524352082.167,911.424,916.054,238953647.793,0.25,0.003,0.378,0.284,0.01,0.003,0.055,0.008,0.0,0.923,0.076,IL,177690286.567,471.705,474.436,41908695.063,0.153,0.16,0.549,0.123,0.011,0.001,0.863,0.135,1.5,Low-Medium (10-20%),1.5,Low-Medium (10-20%),Low-Medium
364289074,Texas,TX,48,Bexar County,29,Microsoft,,Microsoft San Antonio,478642.0,-98.6926080915504,29.479925996060736,building,48029,66612,ERCT,ERCOT All,0.04752319146022544,5.275074252085024,False,ERCT,ERCOT All,477137386.101,733.862,736.629,175076531.801,0.127,0.0,0.496,0.085,0.001,0.002,0.226,0.059,0.0,0.712,0.287,TX,544038647.008,768.317,771.179,208997061.398,0.13,0.517,0.075,0.218,0.052,0.001,0.726,0.274,3.2,High (40-80%),3.2,High (40-80%),High
128499684,Illinois,IL,17,Cook County,31,Digital Realty,CH1,Digital Realty CH1,469756.0,-87.96217216116061,41.9942374288397,building,17031,59847,RFCW,RFC West,0.07990914533362678,8.869915132032572,False,RFCW,RFC West,524352082.167,911.424,916.054,238953647.793,0.25,0.003,0.378,0.284,0.01,0.003,0.055,0.008,0.0,0.923,0.076,IL,177690286.567,471.705,474.436,41908695.063,0.153,0.16,0.549,0.123,0.011,0.001,0.863,0.135,1.5,Low-Medium (10-20%),1.5,Low-Medium (10-20%),Low-Medium
1381994242,Virginia,VA,51,Loudoun County,107,CloudHQ,LC4,,460596.0,-77.47199251742943,39.002357506539106,building,51107,59004,SRVC,SERC Virginia/Carolina,0.09182818023409309,10.192928005984333,False,SRVC,SERC Virginia/Carolina,319478860.928,593.419,596.326,94792347.165,0.105,0.001,0.393,0.399,0.014,0.021,0.005,0.06,0.0,0.9,0.099,VA,91024103.437,536.851,539.599,24433203.526,0.016,0.556,0.326,0.001,0.059,0.0,0.904,0.096,1.0,Low-Medium (10-20%),1.0,Low-Medium (10-20%),Low-Medium
1152747559,Oregon,OR,41,Crook County,13,,,,455401.0,-120.89459613565027,44.30167224151622,building,41013,61048,NWPP,WECC Northwest,0.11968284733011662,13.284796053642944,False,NWPP,WECC Northwest,269253053.412,631.735,635.267,85048260.979,0.164,0.002,0.248,0.031,0.387,0.01,0.116,0.031,0.007,0.448,0.551,OR,61683300.013,364.162,364.963,11231359.308,0.0,0.379,0.0,0.145,0.031,0.427,0.38,0.621,1.5,Low-Medium (10-20%),1.5,Low-Medium (10-20%),Low-Medium
673145182,Texas,TX,48,Tarrant County,439,Meta,,Facebook Fort Worth Datacenter,435206.0,-97.25507514509351,32.984993663270515,building,48439,64890,ERCT,ERCOT All,0.09517227165110888,10.564122153273086,False,ERCT,ERCOT All,477137386.101,733.862,736.629,175076531.801,0.127,0.0,0.496,0.085,0.001,0.002,0.226,0.059,0.0,0.712,0.287,TX,544038647.008,768.317,771.179,208997061.398,0.13,0.517,0.075,0.218,0.052,0.001,0.726,0.274,3.2,High (40-80%),3.2,High (40-80%),High
1221574918,Texas,TX,48,Travis County,453,,,Cortex supercomputer,427833.0,-97.61896045736678,30.21539943501369,building,48453,65070,ERCT,ERCOT All,0.004864080292154292,0.5399129124291264,False,ERCT,ERCOT All,477137386.101,733.862,736.629,175076531.801,0.127,0.0,0.496,0.085,0.001,0.002,0.226,0.059,0.0,0.712,0.287,TX,544038647.008,768.317,771.179,208997061.398,0.13,0.517,0.075,0.218,0.052,0.001,0.726,0.274,3.2,High (40-80%),3.2,High (40-80%),High
195664350,Oklahoma,OK,40,Tulsa County,143,,,Cherokee Data Center,414827.0,-95.9100313251996,36.262546063389934,building,40143,2965,SPSO,SPP South,0.16698355019747646,18.535174071919887,False,SPSO,SPP South,158074959.653,872.042,875.567,68923985.645,0.162,0.005,0.461,0.0,0.025,0.012,0.325,0.004,0.0,0.63,0.367,OK,88878115.88,647.207,648.834,28761252.735,0.057,0.506,0.0,0.416,0.001,0.016,0.564,0.436,2.8,Medium-High (20-40%),2.8,Medium-High (20-40%),Medium-High
468707940,Arizona,AZ,4,Maricopa County,13,,,Stream Data Centers PHX-1,413250.0,-112.35998844515764,33.41949068772329,building,04013,60230,AZNM,WECC Southwest,0.021945484861813937,2.435948819661347,False,AZNM,WECC Southwest,175554659.519,703.703,706.189,61769179.175,0.111,0.0,0.487,0.18,0.026,0.003,0.077,0.082,0.036,0.777,0.223,AZ,111820945.514,686.688,689.104,38393040.736,0.108,0.472,0.282,0.016,0.066,0.054,0.862,0.138,4.5,Extremely High (>80%),4.5,Extremely High (>80%),Extremely High
649319778,Virginia,VA,51,Loudoun County,107,Digital Realty,ACC7,Digital Realty ACC7,409481.0,-77.46564263578887,39.01753209282454,building,51107,59004,SRVC,SERC Virginia/Carolina,0.0891054336575671,9.890703135989948,False,SRVC,SERC Virginia/Carolina,319478860.928,593.419,596.326,94792347.165,0.105,0.001,0.393,0.399,0.014,0.021,0.005,0.06,0.0,0.9,0.099,VA,91024103.437,536.851,539.599,24433203.526,0.016,0.556,0.326,0.001,0.059,0.0,0.904,0.096,1.0,Low-Medium (10-20%),1.0,Low-Medium (10-20%),Low-Medium
193611219,New Jersey,NJ,34,Hudson County,17,Equinix,NY2,Equinix New York Secaucus NY2,402960.0,-74.07591693201753,40.77741950863346,building,34017,63706,RFCE,RFC East,0.00040055135443870524,0.04446120034269628,False,RFCE,RFC East,284874108.51,596.904,599.17,85021258.145,0.047,0.001,0.541,0.364,0.011,0.009,0.01,0.01,0.0,0.96,0.04,NJ,64195046.033,468.31,470.168,15031580.67,0.0,0.515,0.441,0.0,0.024,0.0,0.968,0.032,1.2,Low-Medium (10-20%),1.2,Low-Medium (10-20%),Low-Medium
882977350,Virginia,VA,51,Prince William County,153,CloudHQ,MCC1,CloudHQ MCC1,399915.0,-77.49989682110625,38.717028377885455,building,51153,7798,SRVC,SERC Virginia/Carolina,0.012829279220860556,1.4240499935155218,False,SRVC,SERC Virginia/Carolina,319478860.928,593.419,596.326,94792347.165,0.105,0.001,0.393,0.399,0.014,0.021,0.005,0.06,0.0,0.9,0.099,VA,91024103.437,536.851,539.599,24433203.526,0.016,0.556,0.326,0.001,0.059,0.0,0.904,0.096,1.0,Low-Medium (10-20%),1.0,Low-Medium (10-20%),Low-Medium
1317733642,Virginia,VA,51,Loudoun County,107,Digital Realty,IAD44,Digital Realty Northern Virginia IAD44,399540.0,-77.49143162866764,38.96085555401278,building,51107,59004,SRVC,SERC Virginia/Carolina,0.11098422008247553,12.319248429154785,False,SRVC,SERC Virginia/Carolina,319478860.928,593.419,596.326,94792347.165,0.105,0.001,0.393,0.399,0.014,0.021,0.005,0.06,0.0,0.9,0.099,VA,91024103.437,536.851,539.599,24433203.526,0.016,0.556,0.326,0.001,0.059,0.0,0.904,0.096,1.0,Low-Medium (10-20%),1.0,Low-Medium (10-20%),Low-Medium
793087858,Virginia,VA,51,Loudoun County,107,Digital Realty,IAD41,Digital Realty IAD41 (Building P),396985.0,-77.45822142581041,39.00867671486767,building,51107,59004,SRVC,SERC Virginia/Carolina,0.09984405209404144,11.0826897824386,False,SRVC,SERC Virginia/Carolina,319478860.928,593.419,596.326,94792347.165,0.105,0.001,0.393,0.399,0.014,0.021,0.005,0.06,0.0,0.9,0.099,VA,91024103.437,536.851,539.599,24433203.526,0.016,0.556,0.326,0.001,0.059,0.0,0.904,0.096,1.0,Low-Medium (10-20%),1.0,Low-Medium (10-20%),Low-Medium
1320683840,Nevada,NV,32,Storey County,29,,,,390893.0,-119.48330528884722,39.51151960465572,building,32029,64098,NWPP,WECC Northwest,0.052273332836921545,5.802339944898291,False,NWPP,WECC Northwest,269253053.412,631.735,635.267,85048260.979,0.164,0.002,0.248,0.031,0.387,0.01,0.116,0.031,0.007,0.448,0.551,NV,42162355.474,642.37,643.859,13541908.809,0.049,0.583,0.0,0.007,0.23,0.031,0.632,0.368,3.8,High (40-80%),3.8,High (40-80%),High
1473440674,Utah,UT,49,Utah County,49,,,,378788.0,-112.0194203234161,40.26585616535565,building,49049,56237,NWPP,WECC Northwest,0.27329542905046145,30.335792624601222,False,NWPP,WECC Northwest,269253053.412,631.735,635.267,85048260.979,0.164,0.002,0.248,0.031,0.387,0.01,0.116,0.031,0.007,0.448,0.551,UT,32789440.038,1413.019,1421.234,23166056.111,0.454,0.361,0.0,0.021,0.12,0.023,0.816,0.181,3.8,High (40-80%),3.8,High (40-80%),High
172739950,Nevada,NV,32,Clark County,3,Switch,,Switch12,378533.0,-115.21329217816584,36.06173888983835,building,32003,59430,AZNM,WECC Southwest,0.04453501044497948,4.9433861593927215,False,AZNM,WECC Southwest,175554659.519,703.703,706.189,61769179.175,0.111,0.0,0.487,0.18,0.026,0.003,0.077,0.082,0.036,0.777,0.223,NV,42162355.474,642.37,643.859,13541908.809,0.049,0.583,0.0,0.007,0.23,0.031,0.632,0.368,3.8,High (40-80%),3.8,High (40-80%),High
556564909,Iowa,IA,19,Polk County,153,Meta,,Facebook Altoona Data Center 3,377755.0,-93.50646556541808,41.66707142244616,building,19153,10861,MROW,MRO West,0.08893437438937371,9.871715557220481,False,MROW,MRO West,240934538.663,920.13,926.552,110845559.8,0.352,0.001,0.131,0.078,0.041,0.007,0.376,0.012,0.0,0.564,0.435,IA,69819809.048,630.187,634.156,21999770.946,0.235,0.147,0.0,0.593,0.007,0.014,0.383,0.617,1.5,Low-Medium (10-20%),1.5,Low-Medium (10-20%),Low-Medium
517411076,Oregon,OR,41,Crook County,13,,,,377457.0,-120.87012500756974,44.28888249144302,building,41013,61048,NWPP,WECC Northwest,0.11501961752947962,12.767177545772238,False,NWPP,WECC Northwest,269253053.412,631.735,635.267,85048260.979,0.164,0.002,0.248,0.031,0.387,0.01,0.116,0.031,0.007,0.448,0.551,OR,61683300.013,364.162,364.963,11231359.308,0.0,0.379,0.0,0.145,0.031,0.427,0.38,0.621,1.5,Low-Medium (10-20%),1.5,Low-Medium (10-20%),Low-Medium
1455915218,Idaho,ID,16,Ada County,1,,,,374271.0,-116.27208493714188,43.46334884091311,building,16001,60010,NWPP,WECC Northwest,0.013421244774865,1.489758170010015,False,NWPP,WECC Northwest,269253053.412,631.735,635.267,85048260.979,0.164,0.002,0.248,0.031,0.387,0.01,0.116,0.031,0.007,0.448,0.551,ID,17842445.937,313.292,313.88,2794952.09,0.0,0.319,0.0,0.13,0.048,0.47,0.319,0.677,2.0,Medium-High (20-40%),2.0,Medium-High (20-40%),Medium-High
1386016634,Ohio,OH,39,Licking County,89,Meta,,Meta,365548.0,-82.74054460541299,40.06149628180154,building,39089,58475,RFCW,RFC West,0.2192544859709015,24.337247942770066,False,RFCW,RFC West,524352082.167,911.424,916.054,238953647.793,0.25,0.003,0.378,0.284,0.01,0.003,0.055,0.008,0.0,0.923,0.076,OH,133121090.814,1063.843,1068.27,70809976.727,0.236,0.591,0.122,0.021,0.01,0.004,0.962,0.038,1.2,Low-Medium (10-20%),1.2,Low-Medium (10-20%),Low-Medium
530024353,Illinois,IL,17,DuPage County,43,Centersquare,ORD4,Centersquare Lisle ORD4 Data Center,361205.0,-88.09488558888414,41.80234062646393,building,17043,50722,RFCW,RFC West,0.054376455954260335,6.035786610922897,False,RFCW,RFC West,524352082.167,911.424,916.054,238953647.793,0.25,0.003,0.378,0.284,0.01,0.003,0.055,0.008,0.0,0.923,0.076,IL,177690286.567,471.705,474.436,41908695.063,0.153,0.16,0.549,0.123,0.011,0.001,0.863,0.135,1.5,Low-Medium (10-20%),1.5,Low-Medium (10-20%),Low-Medium
387379196,Georgia,GA,13,Gwinnett County,135,Quality Technology Services,,QTS Suwanee Data Center 2,360379.0,-84.0577034926908,34.037098808167876,building,13135,61387,SRSO,SERC South,0.09327552550091775,10.35358333060187,False,SRSO,SERC South,256144699.488,842.329,846.007,107879089.335,0.145,0.001,0.554,0.204,0.024,0.036,0.0,0.036,0.0,0.905,0.095,GA,129220273.258,713.831,717.445,46120743.102,0.13,0.465,0.289,0.0,0.058,0.017,0.886,0.114,1.5,Low-Medium (10-20%),1.5,Low-Medium (10-20%),Low-Medium
1160814415,Alabama,AL,1,Madison County,89,Meta,,Meta Huntsville Data center,352651.0,-86.62886566493462,34.843182229068525,building,01089,61901,SRTV,SERC Tennessee Valley,0.23283990642495536,25.845229613170044,False,SRTV,SERC Tennessee Valley,209324307.73,898.079,903.306,93994898.715,0.282,0.001,0.298,0.328,0.076,0.007,0.0,0.008,0.0,0.909,0.091,AL,138596256.477,710.988,713.976,49270107.591,0.137,0.442,0.329,0.0,0.009,0.061,0.908,0.092,1.0,Low-Medium (10-20%),1.0,Low-Medium (10-20%),Low-Medium
204460835,New Jersey,NJ,34,Middlesex County,23,Barclays,,Barclays Datacenter,352286.0,-74.45973725576991,40.5472442650833,building,34023,57868,RFCE,RFC East,0.010902666716369013,1.2101960055169605,False,RFCE,RFC East,284874108.51,596.904,599.17,85021258.145,0.047,0.001,0.541,0.364,0.011,0.009,0.01,0.01,0.0,0.96,0.04,NJ,64195046.033,468.31,470.168,15031580.67,0.0,0.515,0.441,0.0,0.024,0.0,0.968,0.032,1.2,Low-Medium (10-20%),1.2,Low-Medium (10-20%),Low-Medium
487170215,Texas,TX,48,Harris County,201,DXC Technology,,,352246.0,-95.86367622394388,30.018697853415755,building,48201,65261,ERCT,ERCOT All,0.12207598438179294,13.550434266379016,False,ERCT,ERCOT All,477137386.101,733.862,736.629,175076531.801,0.127,0.0,0.496,0.085,0.001,0.002,0.226,0.059,0.0,0.712,0.287,TX,544038647.008,768.317,771.179,208997061.398,0.13,0.517,0.075,0.218,0.052,0.001,0.726,0.274,3.2,High (40-80%),3.2,High (40-80%),High
996899489,Virginia,VA,51,Prince William County,153,CloudHQ,MCC2,CloudHQ MCC2,351091.0,-77.49900908655816,38.723181946660446,building,51153,7798,SRVC,SERC Virginia/Carolina,0.010916041132869654,1.2116805657485317,False,SRVC,SERC Virginia/Carolina,319478860.928,593.419,596.326,94792347.165,0.105,0.001,0.393,0.399,0.014,0.021,0.005,0.06,0.0,0.9,0.099,VA,91024103.437,536.851,539.599,24433203.526,0.016,0.556,0.326,0.001,0.059,0.0,0.904,0.096,1.0,Low-Medium (10-20%),1.0,Low-Medium (10-20%),Low-Medium
380282154,Virginia,VA,51,Loudoun County,107,,,VISA Data Center,349987.0,-77.4454155025337,39.04872822028961,building,51107,59004,SRVC,SERC Virginia/Carolina,0.10002039596971384,11.102263952638236,False,SRVC,SERC Virginia/Carolina,319478860.928,593.419,596.326,94792347.165,0.105,0.001,0.393,0.399,0.014,0.021,0.005,0.06,0.0,0.9,0.099,VA,91024103.437,536.851,539.599,24433203.526,0.016,0.556,0.326,0.001,0.059,0.0,0.904,0.096,1.0,Low-Medium (10-20%),1.0,Low-Medium (10-20%),Low-Medium
713428715,Illinois,IL,17,Cook County,31,Digital Realty,CH3,Digital Realty CH3,348220.0,-87.96490377244766,41.99439647260606,building,17031,59847,RFCW,RFC West,0.0787303427268214,8.739068042677175,False,RFCW,RFC West,524352082.167,911.424,916.054,238953647.793,0.25,0.003,0.378,0.284,0.01,0.003,0.055,0.008,0.0,0.923,0.076,IL,177690286.567,471.705,474.436,41908695.063,0.153,0.16,0.549,0.123,0.011,0.001,0.863,0.135,1.5,Low-Medium (10-20%),1.5,Low-Medium (10-20%),Low-Medium
1024051963,Utah,UT,49,Utah County,49,Meta,,Meta Eagle Mountain Data Center,344790.0,-112.01507681579746,40.26828850505122,building,49049,56237,NWPP,WECC Northwest,0.2684972357426357,29.80319316743256,False,NWPP,WECC Northwest,269253053.412,631.735,635.267,85048260.979,0.164,0.002,0.248,0.031,0.387,0.01,0.116,0.031,0.007,0.448,0.551,UT,32789440.038,1413.019,1421.234,23166056.111,0.454,0.361,0.0,0.021,0.12,0.023,0.816,0.181,3.8,High (40-80%),3.8,High (40-80%),High
706759844,Oregon,OR,41,Crook County,13,,,,344665.0,-120.87021590519326,44.28727726878123,building,41013,61048,NWPP,WECC Northwest,0.1135237314491657,12.601134190857392,False,NWPP,WECC Northwest,269253053.412,631.735,635.267,85048260.979,0.164,0.002,0.248,0.031,0.387,0.01,0.116,0.031,0.007,0.448,0.551,OR,61683300.013,364.162,364.963,11231359.308,0.0,0.379,0.0,0.145,0.031,0.427,0.38,0.621,1.5,Low-Medium (10-20%),1.5,Low-Medium (10-20%),Low-Medium
362662493,New Jersey,NJ,34,Middlesex County,23,Quality Technology Services,NJ1,QTS Piscataway Data Center,343444.0,-74.48400692707673,40.55696486399719,building,34023,63355,RFCE,RFC East,0.0067037019729344225,0.7441109189957209,False,RFCE,RFC East,284874108.51,596.904,599.17,85021258.145,0.047,0.001,0.541,0.364,0.011,0.009,0.01,0.01,0.0,0.96,0.04,NJ,64195046.033,468.31,470.168,15031580.67,0.0,0.515,0.441,0.0,0.024,0.0,0.968,0.032,1.2,Low-Medium (10-20%),1.2,Low-Medium (10-20%),Low-Medium
1070895994,Georgia,GA,13,Newton County,217,Meta,,,342886.0,-83.69501281261269,33.59802145151715,building,13217,58628,SRSO,SERC South,0.08230063282084385,9.135370243113668,False,SRSO,SERC South,256144699.488,842.329,846.007,107879089.335,0.145,0.001,0.554,0.204,0.024,0.036,0.0,0.036,0.0,0.905,0.095,GA,129220273.258,713.831,717.445,46120743.102,0.13,0.465,0.289,0.0,0.058,0.017,0.886,0.114,1.5,Low-Medium (10-20%),1.5,Low-Medium (10-20%),Low-Medium
1472128598,Georgia,GA,13,Fayette County,113,Quality Technology Services,,QTS,340589.0,-84.52361886278894,33.450931799506705,building,13113,58484,SRSO,SERC South,0.24151599456167297,26.8082753963457,False,SRSO,SERC South,256144699.488,842.329,846.007,107879089.335,0.145,0.001,0.554,0.204,0.024,0.036,0.0,0.036,0.0,0.905,0.095,GA,129220273.258,713.831,717.445,46120743.102,0.13,0.465,0.289,0.0,0.058,0.017,0.886,0.114,1.5,Low-Medium (10-20%),1.5,Low-Medium (10-20%),Low-Medium
1456975949,Arizona,AZ,4,Maricopa County,13,,,,337459.0,-111.62596778673522,33.347168811477516,building,04013,64404,AZNM,WECC Southwest,0.02396838121983742,2.6604903154019537,False,AZNM,WECC Southwest,175554659.519,703.703,706.189,61769179.175,0.111,0.0,0.487,0.18,0.026,0.003,0.077,0.082,0.036,0.777,0.223,AZ,111820945.514,686.688,689.104,38393040.736,0.108,0.472,0.282,0.016,0.066,0.054,0.862,0.138,4.5,Extremely High (>80%),4.5,Extremely High (>80%),Extremely High
918873142,Oregon,OR,41,Washington County,67,Flexential,,Flexential Portland - Hillsboro 3,337274.0,-122.9382474261934,45.559469442156384,building,41067,64008,NWPP,WECC Northwest,0.11224762982306438,12.459486910360146,False,NWPP,WECC Northwest,269253053.412,631.735,635.267,85048260.979,0.164,0.002,0.248,0.031,0.387,0.01,0.116,0.031,0.007,0.448,0.551,OR,61683300.013,364.162,364.963,11231359.308,0.0,0.379,0.0,0.145,0.031,0.427,0.38,0.621,1.5,Low-Medium (10-20%),1.5,Low-Medium (10-20%),Low-Medium
649365764,Virginia,VA,51,Loudoun County,107,Digital Realty,ACC9,Digital Realty ACC9,329257.0,-77.46731852528755,39.015466253556106,building,51107,59004,SRVC,SERC Virginia/Carolina,0.08859062035935457,9.833558859888358,False,SRVC,SERC Virginia/Carolina,319478860.928,593.419,596.326,94792347.165,0.105,0.001,0.393,0.399,0.014,0.021,0.005,0.06,0.0,0.9,0.099,VA,91024103.437,536.851,539.599,24433203.526,0.016,0.556,0.326,0.001,0.059,0.0,0.904,0.096,1.0,Low-Medium (10-20%),1.0,Low-Medium (10-20%),Low-Medium
1454573842,Minnesota,MN,27,Dakota County,37,,,,328419.0,-93.06186047500412,44.7347589273926,building,27037,57880,MROW,MRO West,0.015226820843317175,1.6901771136082064,False,MROW,MRO West,240934538.663,920.13,926.552,110845559.8,0.352,0.001,0.131,0.078,0.041,0.007,0.376,0.012,0.0,0.564,0.435,MN,57260118.977,747.545,752.329,21402253.182,0.223,0.241,0.208,0.251,0.036,0.013,0.678,0.321,1.2,Low-Medium (10-20%),1.2,Low-Medium (10-20%),Low-Medium
706759845,Oregon,OR,41,Crook County,13,,,,328376.0,-120.88151890467708,44.29368315614664,building,41013,61048,NWPP,WECC Northwest,0.11530631016801203,12.799000428649336,False,NWPP,WECC Northwest,269253053.412,631.735,635.267,85048260.979,0.164,0.002,0.248,0.031,0.387,0.01,0.116,0.031,0.007,0.448,0.551,OR,61683300.013,364.162,364.963,11231359.308,0.0,0.379,0.0,0.145,0.031,0.427,0.38,0.621,1.5,Low-Medium (10-20%),1.5,Low-Medium (10-20%),Low-Medium
1030970564,Virginia,VA,51,Henrico County,87,Meta,,Meta Henrico Data Center,327920.0,-77.23380499305182,37.481963263600264,building,51087,65022,SRVC,SERC Virginia/Carolina,0.051220126861394065,5.6854340816147415,False,SRVC,SERC Virginia/Carolina,319478860.928,593.419,596.326,94792347.165,0.105,0.001,0.393,0.399,0.014,0.021,0.005,0.06,0.0,0.9,0.099,VA,91024103.437,536.851,539.599,24433203.526,0.016,0.556,0.326,0.001,0.059,0.0,0.904,0.096,1.0,Low-Medium (10-20%),1.0,Low-Medium (10-20%),Low-Medium
172739953,Nevada,NV,32,Clark County,3,Switch,,Switch Las Vegas 7,324714.0,-115.2102454849461,36.0599251525617,building,32003,59430,AZNM,WECC Southwest,0.0433245360272722,4.809023499027214,False,AZNM,WECC Southwest,175554659.519,703.703,706.189,61769179.175,0.111,0.0,0.487,0.18,0.026,0.003,0.077,0.082,0.036,0.777,0.223,NV,42162355.474,642.37,643.859,13541908.809,0.049,0.583,0.0,0.007,0.23,0.031,0.632,0.368,3.8,High (40-80%),3.8,High (40-80%),High
1312792613,Illinois,IL,17,DeKalb County,37,Meta,,,320184.0,-88.72635519613044,41.89027497092366,building,17037,65799,RFCW,RFC West,0.04479956147274269,4.972751323474438,False,RFCW,RFC West,524352082.167,911.424,916.054,238953647.793,0.25,0.003,0.378,0.284,0.01,0.003,0.055,0.008,0.0,0.923,0.076,IL,177690286.567,471.705,474.436,41908695.063,0.153,0.16,0.549,0.123,0.011,0.001,0.863,0.135,1.5,Low-Medium (10-20%),1.5,Low-Medium (10-20%),Low-Medium
883809860,North Carolina,NC,37,Rutherford County,161,Meta,FRC,Meta Forest City datacenter,319829.0,-81.82513233085027,35.316554514924,building,37161,65817,SRVC,SERC Virginia/Carolina,0.01861678478936521,2.066463111619538,False,SRVC,SERC Virginia/Carolina,319478860.928,593.419,596.326,94792347.165,0.105,0.001,0.393,0.399,0.014,0.021,0.005,0.06,0.0,0.9,0.099,NC,126510680.084,623.958,626.438,39468698.057,0.112,0.409,0.335,0.004,0.09,0.033,0.857,0.141,1.2,Low-Medium (10-20%),1.2,Low-Medium (10-20%),Low-Medium
1073720209,Iowa,IA,19,Pottawattamie County,155,Google,,Google,318940.0,-95.80637969473156,41.17727415208592,building,19155,1082,MROW,MRO West,0.03452807063279193,3.8326158402399044,False,MROW,MRO West,240934538.663,920.13,926.552,110845559.8,0.352,0.001,0.131,0.078,0.041,0.007,0.376,0.012,0.0,0.564,0.435,IA,69819809.048,630.187,634.156,21999770.946,0.235,0.147,0.0,0.593,0.007,0.014,0.383,0.617,1.5,Low-Medium (10-20%),1.5,Low-Medium (10-20%),Low-Medium
460182320,New Jersey,NJ,34,Somerset County,35,CyrusOne,,CyrusOne Somerset,318583.0,-74.54565865822576,40.537986381868514,building,34035,66815,RFCE,RFC East,0.012515134669846974,1.389179948353014,False,RFCE,RFC East,284874108.51,596.904,599.17,85021258.145,0.047,0.001,0.541,0.364,0.011,0.009,0.01,0.01,0.0,0.96,0.04,NJ,64195046.033,468.31,470.168,15031580.67,0.0,0.515,0.441,0.0,0.024,0.0,0.968,0.032,1.2,Low-Medium (10-20%),1.2,Low-Medium (10-20%),Low-Medium
193611211,New Jersey,NJ,34,Hudson County,17,Equinix,NY4,Equinix New York Secaucus NY4,317271.0,-74.06977591206658,40.77642808061452,building,34017,63702,RFCE,RFC East,0.001205560250018067,0.13381718775200543,False,RFCE,RFC East,284874108.51,596.904,599.17,85021258.145,0.047,0.001,0.541,0.364,0.011,0.009,0.01,0.01,0.0,0.96,0.04,NJ,64195046.033,468.31,470.168,15031580.67,0.0,0.515,0.441,0.0,0.024,0.0,0.968,0.032,1.2,Low-Medium (10-20%),1.2,Low-Medium (10-20%),Low-Medium
438078069,Iowa,IA,19,Polk County,153,Meta,,Facebook Altoona Data Center 1,315400.0,-93.51472775765038,41.6642411277008,building,19153,10861,MROW,MRO West,0.08034020269784511,8.917762499460808,False,MROW,MRO West,240934538.663,920.13,926.552,110845559.8,0.352,0.001,0.131,0.078,0.041,0.007,0.376,0.012,0.0,0.564,0.435,IA,69819809.048,630.187,634.156,21999770.946,0.235,0.147,0.0,0.593,0.007,0.014,0.383,0.617,1.5,Low-Medium (10-20%),1.5,Low-Medium (10-20%),Low-Medium
1318322780,Iowa,IA,19,Dallas County,49,Apple,,Apple,313804.0,-93.92440196315307,41.616851127761585,building,19049,8029,MROW,MRO West,0.25361529808488337,28.151298087422052,False,MROW,MRO West,240934538.663,920.13,926.552,110845559.8,0.352,0.001,0.131,0.078,0.041,0.007,0.376,0.012,0.0,0.564,0.435,IA,69819809.048,630.187,634.156,21999770.946,0.235,0.147,0.0,0.593,0.007,0.014,0.383,0.617,1.5,Low-Medium (10-20%),1.5,Low-Medium (10-20%),Low-Medium
975064000,Georgia,GA,13,Douglas County,97,Digital Realty,ATL11,Digital Realty Atlanta ATL11,313479.0,-84.57973805393436,33.746561602113815,building,13097,66205,SRSO,SERC South,0.1099251106077209,12.201687277457019,False,SRSO,SERC South,256144699.488,842.329,846.007,107879089.335,0.145,0.001,0.554,0.204,0.024,0.036,0.0,0.036,0.0,0.905,0.095,GA,129220273.258,713.831,717.445,46120743.102,0.13,0.465,0.289,0.0,0.058,0.017,0.886,0.114,1.5,Low-Medium (10-20%),1.5,Low-Medium (10-20%),Low-Medium
1455915217,Idaho,ID,16,Ada County,1,,,,311564.0,-116.2682278264812,43.46314906556169,building,16001,60010,NWPP,WECC Northwest,0.017208587989524012,1.9101532668371655,False,NWPP,WECC Northwest,269253053.412,631.735,635.267,85048260.979,0.164,0.002,0.248,0.031,0.387,0.01,0.116,0.031,0.007,0.448,0.551,ID,17842445.937,313.292,313.88,2794952.09,0.0,0.319,0.0,0.13,0.048,0.47,0.319,0.677,2.0,Medium-High (20-40%),2.0,Medium-High (20-40%),Medium-High
1258702591,Georgia,GA,13,Douglas County,97,Flexential,,Flexential Atlanta - Douglasville 2,311176.0,-84.61123970385259,33.73070271823669,building,13097,66205,SRSO,SERC South,0.07466759028908374,8.288102522088295,False,SRSO,SERC South,256144699.488,842.329,846.007,107879089.335,0.145,0.001,0.554,0.204,0.024,0.036,0.0,0.036,0.0,0.905,0.095,GA,129220273.258,713.831,717.445,46120743.102,0.13,0.465,0.289,0.0,0.058,0.017,0.886,0.114,1.5,Low-Medium (10-20%),1.5,Low-Medium (10-20%),Low-Medium
387378765,Georgia,GA,13,Gwinnett County,135,Quality Technology Services,,QTS Suwanee Data Center 1,310488.0,-84.06107488394335,34.03538969563108,building,13135,61387,SRSO,SERC South,0.0958459574690003,10.638901279059034,False,SRSO,SERC South,256144699.488,842.329,846.007,107879089.335,0.145,0.001,0.554,0.204,0.024,0.036,0.0,0.036,0.0,0.905,0.095,GA,129220273.258,713.831,717.445,46120743.102,0.13,0.465,0.289,0.0,0.058,0.017,0.886,0.114,1.5,Low-Medium (10-20%),1.5,Low-Medium (10-20%),Low-Medium
1473440676,Utah,UT,49,Utah County,49,,,,310201.0,-112.0194525662908,40.26987560376367,building,49049,56237,NWPP,WECC Northwest,0.27238687253806604,30.23494285172533,False,NWPP,WECC Northwest,269253053.412,631.735,635.267,85048260.979,0.164,0.002,0.248,0.031,0.387,0.01,0.116,0.031,0.007,0.448,0.551,UT,32789440.038,1413.019,1421.234,23166056.111,0.454,0.361,0.0,0.021,0.12,0.023,0.816,0.181,3.8,High (40-80%),3.8,High (40-80%),High
