state,state_abb,county,county_id,fips,dc_count,total_sqft,mean_sqft,co2_rate_lb_mwh,co2eq_rate_lb_mwh,renewable_pct,nonrenewable_pct,co2_rate_lb_mwh_sqftw,co2_rate_lb_mwh_mww,sqft_coverage_pct,mw_coverage_pct,mean_lat,mean_lon,bws_category_mode,egrid_subregion
Virginia,VA,Loudoun County,107,51107,213,58653497.0,279302.36666666664,593.419,596.326,0.099,0.9000000000000004,593.419,,98.59154929577466,4.225352112676056,39.001605737654415,-77.47073428067318,Low,SRVC
California,CA,Santa Clara County,85,06085,75,5173320.0,73904.57142857143,428.464,429.98300000000006,0.4650000000000001,0.537,428.464,,93.33333333333333,4.0,37.37245097262468,-121.95222074539362,Low-Medium,CAMX
Arizona,AZ,Maricopa County,13,04013,63,43471171.0,905649.3958333334,703.7030000000002,706.1889999999999,0.22300000000000011,0.7770000000000001,703.703,,76.19047619047619,9.523809523809524,33.40115651280949,-111.88557280277665,Extremely High,AZNM
Virginia,VA,Prince William County,153,51153,63,12076104.0,194775.87096774194,593.4190000000002,596.3260000000001,0.09900000000000002,0.8999999999999999,593.419,,98.4126984126984,1.5873015873015872,38.77214409025533,-77.55179097915374,High,SRVC
Washington,WA,Grant County,25,53025,39,26765399.0,686292.282051282,631.7350000000001,635.267,0.5509999999999997,0.448,631.735,,100.0,2.564102564102564,47.24344625440554,-119.8487469823896,Extremely High,NWPP
Ohio,OH,Franklin County,49,39049,33,42091792.0,1275508.8484848484,911.424,916.054,0.076,0.923,911.4239999999998,,100.0,12.121212121212121,40.055336048260564,-83.04872190729674,Medium-High,RFCW
Texas,TX,Bexar County,29,48029,33,5211409.0,157921.48484848486,733.862,736.629,0.287,0.712,733.862,,100.0,0.0,29.45628909691318,-98.67164759642486,High,ERCT
Ohio,OH,Licking County,89,39089,32,9590723.0,299710.09375,911.424,916.054,0.076,0.923,911.4239999999998,,100.0,3.125,40.08074442436493,-82.74870230341463,Medium-High,RFCW
Oregon,OR,Umatilla County,59,41059,31,4442895.0,143319.1935483871,631.7350000000001,635.267,0.5509999999999999,0.4480000000000001,631.7350000000004,,100.0,0.0,45.88203526956203,-119.29362444784249,High,NWPP
Illinois,IL,Cook County,31,17031,29,5962351.0,259232.65217391305,911.4239999999999,916.054,0.07600000000000001,0.9230000000000004,911.4240000000001,,79.3103448275862,13.793103448275861,41.935604883163435,-87.82362468080369,High,RFCW
Oregon,OR,Morrow County,49,41049,28,5192302.0,185439.35714285713,631.735,635.267,0.551,0.44800000000000006,631.7350000000001,,100.0,0.0,45.8435795163462,-119.63595970144794,Low,NWPP
Virginia,VA,Fairfax County,59,51059,27,2070345.0,82813.8,593.419,596.3260000000001,0.09900000000000003,0.8999999999999999,593.419,,92.5925925925926,0.0,38.91577131093943,-77.3584690061031,Low,SRVC
Iowa,IA,Polk County,153,19153,26,43394208.0,1669008.0,920.13,926.5519999999999,0.435,0.564,920.1299999999999,,100.0,0.0,41.581167416741145,-93.61220597357149,Low,MROW
Oregon,OR,Washington County,67,41067,26,3947274.0,151818.23076923078,631.735,635.267,0.551,0.44800000000000006,631.735,,100.0,19.230769230769234,45.555848997048834,-122.92328161585563,Low,NWPP
Texas,TX,Dallas County,113,48113,25,2441308.0,110968.54545454546,733.862,736.6290000000001,0.287,0.7120000000000001,733.862,,88.0,16.0,32.87255003588678,-96.80495254819212,High,ERCT
Nevada,NV,Clark County,3,32003,23,5315266.0,241603.0,703.7029999999999,706.1890000000001,0.22299999999999998,0.7769999999999999,703.703,,95.65217391304348,4.3478260869565215,36.0994912509425,-115.14105605484485,Low,AZNM
Iowa,IA,Pottawattamie County,155,19155,20,5917157.0,295857.85,920.1300000000001,926.552,0.43499999999999994,0.564,920.13,,100.0,0.0,41.183545275858876,-95.81559175943683,Low,MROW
Wyoming,WY,Laramie County,21,56021,18,21738866.0,1207714.7777777778,1036.6009999999999,1042.539,0.41899999999999993,0.581,1036.601,,100.0,0.0,41.12572015609861,-104.85100007697908,Extremely High,RMPA
Georgia,GA,Fulton County,121,13121,16,3999209.0,307631.46153846156,842.329,846.007,0.095,0.905,842.3290000000002,842.329,81.25,50.0,33.93406256402066,-84.32269650062105,Medium-High,SRSO
New Jersey,NJ,Hudson County,17,34017,16,2973647.0,198243.13333333333,596.904,599.17,0.04,0.96,596.904,,93.75,0.0,40.779785525032764,-74.06143574786063,Low-Medium,RFCE
Texas,TX,Travis County,453,48453,16,2126386.0,132899.125,733.862,736.629,0.287,0.712,733.862,,100.0,0.0,30.235341115732034,-97.69380948982082,Medium-High,ERCT
Texas,TX,Ellis County,139,48139,15,3399174.0,226611.6,733.8619999999997,736.6290000000002,0.287,0.7119999999999999,733.8619999999999,,100.0,6.666666666666667,32.522618129703105,-96.85017580269069,Low,ERCT
Washington,WA,King County,33,53033,15,971886.0,64792.4,631.735,635.2669999999999,0.551,0.4480000000000002,631.7349999999999,,100.0,13.333333333333334,47.55635012185879,-122.31432662643296,Low-Medium,NWPP
Nebraska,NE,Sarpy County,153,31153,15,24205230.0,1613682.0,920.1299999999997,926.5519999999999,0.43499999999999983,0.564,920.1300000000001,,100.0,6.666666666666667,41.13121051540853,-96.13592156460992,Low,MROW
Illinois,IL,DuPage County,43,17043,14,1907073.0,136219.5,911.4239999999996,916.054,0.07599999999999998,0.923,911.424,,100.0,7.142857142857142,41.891897906174044,-88.06343851515555,High,RFCW
New Jersey,NJ,Somerset County,35,34035,14,1813625.0,129544.64285714286,596.9040000000002,599.17,0.039999999999999994,0.9600000000000003,596.904,,100.0,0.0,40.55564508008073,-74.5991472243398,High,RFCE
New Jersey,NJ,Middlesex County,23,34023,13,2464335.0,205361.25,596.9040000000002,599.17,0.039999999999999994,0.9600000000000003,596.9040000000001,,92.3076923076923,0.0,40.54610662201823,-74.44229351167789,High,RFCE
Oregon,OR,Crook County,13,41013,13,36802649.0,2830973.0,631.7349999999999,635.2669999999999,0.551,0.4480000000000001,631.735,,100.0,0.0,44.29385395771642,-120.88068408253051,Low-Medium,NWPP
Texas,TX,Collin County,85,48085,13,2205091.0,169622.38461538462,733.8619999999999,736.6290000000001,0.287,0.7119999999999999,733.862,,100.0,7.6923076923076925,33.07853260234961,-96.69025538547292,High,ERCT
Washington,WA,Douglas County,17,53017,13,4571955.0,351688.8461538461,631.7349999999999,635.2669999999999,0.551,0.4480000000000001,631.735,,100.0,0.0,47.40523071998485,-120.20670685433876,Low,NWPP
Nevada,NV,Washoe County,31,32031,11,1175880.0,106898.18181818182,631.7349999999999,635.2669999999999,0.551,0.44800000000000006,631.735,,100.0,0.0,39.568055258016905,-119.5423388751089,Medium-High,NWPP
Nebraska,NE,Douglas County,55,31055,10,22616755.0,2261675.5,920.1299999999999,926.552,0.43499999999999994,0.564,920.1299999999999,,100.0,10.0,41.310269955594755,-96.04859443869734,Low,MROW
South Carolina,SC,Berkeley County,15,45015,10,10433266.0,1043326.6,593.419,596.326,0.099,0.9,593.419,,100.0,0.0,33.063564188603166,-80.04143270687607,Medium-High,SRVC
California,CA,Los Angeles County,37,06037,10,600044.0,66671.55555555556,428.46400000000006,429.983,0.465,0.537,428.464,,90.0,0.0,34.079468686443036,-118.28551285461597,Extremely High,CAMX
Iowa,IA,Dallas County,49,19049,9,1746256.0,194028.44444444444,920.13,926.5520000000001,0.435,0.564,920.13,,100.0,11.11111111111111,41.545691013498725,-93.85400131728302,Low-Medium,MROW
Colorado,CO,Arapahoe County,5,08005,9,509561.0,72794.42857142857,1036.601,1042.539,0.419,0.581,1036.601,,77.77777777777779,0.0,39.61581439753203,-104.83663061891016,Extremely High,RMPA
Ohio,OH,Union County,159,39159,8,1474077.0,184259.625,911.424,916.054,0.076,0.923,911.424,,100.0,0.0,40.122522389009426,-83.20465748898356,Medium-High,RFCW
Texas,TX,Tarrant County,439,48439,8,2817225.0,352153.125,733.862,736.629,0.287,0.712,733.862,,100.0,0.0,32.86898232739035,-97.20266214634033,High,ERCT
New Mexico,NM,Bernalillo County,1,35001,8,227042.0,75680.66666666667,703.703,706.189,0.223,0.777,703.703,,37.5,0.0,35.068668427263475,-106.60787875123714,High,AZNM
Virginia,VA,Henrico County,87,51087,7,12242695.0,1748956.4285714286,593.419,596.326,0.09899999999999999,0.9000000000000001,593.419,,100.0,0.0,37.508314229625896,-77.26527056570889,High,SRVC
Utah,UT,Utah County,49,49049,7,25022548.0,4170424.6666666665,631.735,635.2669999999999,0.551,0.448,631.735,,85.71428571428571,0.0,40.27753675384422,-111.97567522350826,Medium-High,NWPP
Georgia,GA,Douglas County,97,13097,6,3867865.0,644644.1666666666,842.3289999999998,846.007,0.09499999999999999,0.9050000000000001,842.3290000000001,842.329,100.0,66.66666666666666,33.74302757239883,-84.59346118243799,Medium-High,SRSO
Alabama,AL,Madison County,89,01089,6,16255032.0,2709172.0,898.0789999999998,903.3060000000002,0.09099999999999998,0.9089999999999999,898.079,,100.0,0.0,34.8095273681221,-86.64632068897248,Low,SRTV
New Mexico,NM,Valencia County,61,35061,6,24866290.0,4144381.6666666665,703.703,706.189,0.223,0.777,703.703,,100.0,0.0,34.82874344324496,-106.78031672863534,High,AZNM
Kansas,KS,Johnson County,91,20091,6,554783.0,92463.83333333333,861.9989999999999,867.7399999999999,0.40099999999999997,0.5990000000000001,861.999,,100.0,0.0,38.93460017316477,-94.81437306221949,Low-Medium,SPNO
Texas,TX,Harris County,201,48201,6,1198611.0,199768.5,734.8383333333333,737.4809999999999,0.24416666666666662,0.7548333333333331,735.583540239494,,100.0,33.33333333333333,29.882287760764466,-95.62674638340974,Medium-High,ERCT
Utah,UT,Salt Lake County,35,49035,6,464141.0,77356.83333333333,631.735,635.2669999999999,0.551,0.448,631.735,,100.0,0.0,40.65946903657841,-111.97409570724354,Medium-High,NWPP
Maryland,MD,Baltimore city,510,24510,6,34011.0,17005.5,596.904,599.17,0.04,0.96,596.904,,33.33333333333333,16.666666666666664,39.285802884889634,-76.60270014054966,Low-Medium,RFCE
Iowa,IA,Warren County,181,19181,5,1219616.0,243923.2,920.1299999999999,926.552,0.43499999999999994,0.564,920.1299999999999,,100.0,0.0,41.496834031741635,-93.78703726491285,Low,MROW
North Carolina,NC,Mecklenburg County,119,37119,5,269826.0,53965.2,593.419,596.326,0.099,0.9,593.419,,100.0,0.0,35.192244492454066,-80.89466796551605,High,SRVC
California,CA,Alameda County,1,06001,5,281664.0,70416.0,428.46400000000006,429.983,0.465,0.537,428.46399999999994,,80.0,0.0,37.601271293222645,-121.98741264243554,Low-Medium,CAMX
Ohio,OH,Cuyahoga County,35,39035,5,1346834.0,269366.8,911.424,916.0539999999999,0.076,0.923,911.424,,100.0,0.0,41.451490020105126,-81.71583697219667,Low-Medium,RFCW
Tennessee,TN,Montgomery County,125,47125,5,27291129.0,5458225.8,898.079,903.3060000000002,0.091,0.909,898.079,,100.0,0.0,36.62526917548795,-87.26015325044888,High,SRTV
Missouri,MO,Platte County,165,29165,5,461287.0,92257.4,861.999,867.74,0.40099999999999997,0.599,861.9990000000001,,100.0,0.0,39.29485540390415,-94.67944089928905,Low,SPNO
California,CA,San Diego County,73,06073,5,225287.0,56321.75,428.46400000000006,429.983,0.465,0.537,428.46400000000006,,80.0,0.0,32.86927492255156,-117.15359226558726,Extremely High,CAMX
Tennessee,TN,Williamson County,187,47187,5,2264501.0,566125.25,898.079,903.3060000000002,0.091,0.909,898.079,,80.0,0.0,35.95839151902044,-86.82093380793354,Low-Medium,SRTV
California,CA,Sacramento County,67,06067,5,667884.0,133576.8,428.46400000000006,429.983,0.465,0.537,428.464,,100.0,20.0,38.63674348032397,-121.44871105137922,Medium-High,CAMX
Illinois,IL,DeKalb County,37,17037,4,14250374.0,3562593.5,911.424,916.054,0.076,0.923,911.424,,100.0,0.0,41.889282386706164,-88.72695900544676,High,RFCW
Colorado,CO,El Paso County,41,08041,4,384181.0,96045.25,1036.601,1042.539,0.419,0.581,1036.601,,100.0,0.0,38.8908665376238,-104.72103808017872,Extremely High,RMPA
Florida,FL,Miami-Dade County,86,12086,4,138536.0,69268.0,782.262,784.785,0.066,0.931,782.262,,50.0,0.0,25.754507595264226,-80.29107303357445,Low-Medium,FRCC
North Carolina,NC,Catawba County,35,37035,4,6405975.0,1601493.75,593.419,596.326,0.099,0.9,593.419,,100.0,0.0,35.58855906904524,-81.2622945675048,High,SRVC
Michigan,MI,Wayne County,163,26163,4,96705.0,24176.25,970.617,975.978,0.112,0.888,970.617,,100.0,25.0,42.275418647242425,-83.19727487857696,Low,RFCM
North Carolina,NC,Rutherford County,161,37161,4,5654641.0,1413660.25,593.419,596.326,0.099,0.9,593.419,,100.0,0.0,35.31596413083559,-81.8245863241718,High,SRVC
Tennessee,TN,Sumner County,165,47165,4,18924827.0,4731206.75,898.079,903.306,0.091,0.909,898.079,,100.0,0.0,36.40947963729252,-86.36814896444974,Low,SRTV
North Carolina,NC,Wake County,183,37183,4,197286.0,65762.0,593.419,596.326,0.099,0.9,593.419,,75.0,0.0,35.795398996198,-78.65090473344475,High,SRVC
Washington,WA,Snohomish County,61,53061,4,131773.0,43924.333333333336,631.735,635.267,0.551,0.448,631.735,,75.0,0.0,47.871919404251614,-122.26673516354523,Low-Medium,NWPP
Georgia,GA,Gwinnett County,135,13135,4,2155213.0,538803.25,842.329,846.007,0.095,0.905,842.329,842.3290000000001,100.0,75.0,34.01587195020962,-84.09415164260722,Medium-High,SRSO
New York,NY,New York County,61,36061,4,73187.0,36593.5,864.469,865.744,0.006,0.994,864.469,,50.0,25.0,40.71853201509351,-74.00586215769366,Low,NYCW
Pennsylvania,PA,Montgomery County,91,42091,4,207540.0,69180.0,596.904,599.17,0.04,0.96,596.904,596.9040000000001,75.0,50.0,40.12226916419007,-75.41171606294263,Medium-High,RFCE
Georgia,GA,Newton County,217,13217,4,10799048.0,2699762.0,842.329,846.007,0.095,0.905,842.329,,100.0,0.0,33.60006179990616,-83.69940285716181,Medium-High,SRSO
Nevada,NV,Storey County,29,32029,4,1316320.0,438773.3333333333,631.735,635.267,0.551,0.448,631.735,,75.0,0.0,39.51338855664681,-119.48081597257064,Medium-High,NWPP
California,CA,San Francisco County,75,06075,4,178784.0,59594.666666666664,428.464,429.983,0.465,0.537,428.46400000000006,,75.0,0.0,37.770244371863456,-122.39313555076743,Low-Medium,CAMX
New York,NY,Rockland County,87,36087,4,794279.0,198569.75,242.089,242.776,0.418,0.582,242.089,242.089,100.0,75.0,41.04075702766356,-73.98118707064012,Low-Medium,NYUP
New York,NY,Albany County,1,36001,3,25820.0,12910.0,242.08900000000003,242.77599999999998,0.418,0.582,242.08900000000003,,66.66666666666666,0.0,42.71014165444871,-73.77686994256537,Low,NYUP
Tennessee,TN,Davidson County,37,47037,3,295258.0,98419.33333333333,898.0790000000001,903.306,0.09100000000000001,0.9090000000000001,898.079,,100.0,0.0,36.12950462088934,-86.72854293452728,Low-Medium,SRTV
Alabama,AL,Jackson County,71,01071,3,7869085.0,2623028.3333333335,898.0790000000001,903.306,0.09100000000000001,0.9090000000000001,898.079,,100.0,0.0,34.91390068744834,-85.74720810589832,Low,SRTV
Minnesota,MN,Dakota County,37,27037,3,10936720.0,3645573.3333333335,920.13,926.552,0.435,0.564,920.1299999999999,,100.0,0.0,44.73476568953532,-93.0631226744187,Low,MROW
Missouri,MO,St. Louis city,510,29510,3,71651.0,23883.666666666668,1239.839,1248.582,0.152,0.8450000000000001,1239.839,,100.0,0.0,38.631863806510545,-90.21632949719351,Low,SRMW
Minnesota,MN,Hennepin County,53,27053,3,253525.0,84508.33333333333,920.13,926.552,0.435,0.564,920.13,,100.0,0.0,45.035490300901635,-93.30735724328906,High,MROW
Missouri,MO,Clay County,47,29047,3,14440116.0,4813372.0,861.9990000000001,867.7400000000001,0.401,0.599,861.999,,100.0,0.0,39.3225466357945,-94.59618197761637,Low,SPNO
New Jersey,NJ,Passaic County,31,34031,3,241537.0,80512.33333333333,596.904,599.17,0.04,0.96,596.9040000000001,,100.0,0.0,40.8313217511459,-74.13049407281522,Low,RFCE
Oklahoma,OK,Tulsa County,143,40143,3,423416.0,211708.0,872.042,875.567,0.367,0.63,872.042,,66.66666666666666,0.0,36.14775700124065,-95.86748769857816,Low-Medium,SPSO
Virginia,VA,Fauquier County,61,51061,3,252611.0,84203.66666666667,593.419,596.326,0.09900000000000002,0.9,593.419,,100.0,0.0,38.74095977928594,-77.77550296251273,High,SRVC
North Carolina,NC,Durham County,63,37063,3,0.0,,593.419,596.326,0.09900000000000002,0.9,,,0.0,0.0,35.92195343333332,-78.88055229999999,High,SRVC
Colorado,CO,Denver County,31,08031,3,68594.0,34297.0,1036.601,1042.539,0.419,0.581,1036.601,,66.66666666666666,0.0,39.745590779276334,-104.98972740796573,Extremely High,RMPA
Florida,FL,Hillsborough County,57,12057,3,127975.0,63987.5,782.2620000000001,784.785,0.066,0.931,782.262,,66.66666666666666,0.0,28.018895643153105,-82.41982585806913,High,FRCC
Wisconsin,WI,Milwaukee County,79,55079,3,26099.0,26099.0,911.424,916.054,0.076,0.923,911.424,,33.33333333333333,33.33333333333333,42.972165240575976,-87.96429966735525,Medium-High,RFCW
Washington,WA,Pierce County,53,53053,3,2058250.0,686083.3333333334,631.735,635.267,0.551,0.448,631.735,,100.0,0.0,47.15976365945192,-122.27961736394336,Low,NWPP
Washington,WA,Spokane County,63,53063,3,53919.0,17973.0,631.735,635.267,0.551,0.448,631.735,,100.0,0.0,47.64025286407209,-117.3510283297973,Low-Medium,NWPP
Idaho,ID,Ada County,1,16001,3,16637565.0,5545855.0,631.735,635.267,0.551,0.448,631.7350000000001,,100.0,0.0,43.46321305707056,-116.2692733542787,High,NWPP
Washington,WA,Chelan County,7,53007,3,722991.0,240997.0,631.735,635.267,0.551,0.448,631.735,,100.0,0.0,47.3584518836141,-120.15987096078062,Low,NWPP
Florida,FL,Alachua County,1,12001,2,36370.0,36370.0,782.262,784.785,0.066,0.931,782.262,,50.0,0.0,29.672704916645593,-82.29984584686127,High,FRCC
Connecticut,CT,Western Connecticut Planning Region,190,09190,2,88304.0,44152.0,539.275,543.178,0.192,0.807,539.275,,100.0,0.0,41.102462578168684,-73.45268251684278,Low,NEWE
Colorado,CO,Douglas County,35,08035,2,226904.0,113452.0,1036.601,1042.539,0.419,0.581,1036.601,,100.0,0.0,39.559021287562004,-104.8355705377604,Extremely High,RMPA
New Hampshire,NH,Rockingham County,15,33015,2,17049.0,8524.5,539.275,543.178,0.192,0.807,539.275,,100.0,0.0,43.0291051738006,-70.87931776262452,Low,NEWE
New York,NY,Richmond County,85,36085,2,133434.0,66717.0,864.469,865.744,0.006,0.994,864.469,864.469,100.0,50.0,40.607182725924815,-74.17403311264957,Extremely High,NYCW
Massachusetts,MA,Middlesex County,17,25017,2,257625.0,128812.5,539.275,543.178,0.192,0.807,539.275,,100.0,0.0,42.50348393925698,-71.19209066303267,Low-Medium,NEWE
New Jersey,NJ,Essex County,13,34013,2,197220.0,98610.0,596.904,599.17,0.04,0.96,596.904,,100.0,0.0,40.779089649313164,-74.15405547657126,Low,RFCE
Oregon,OR,Marion County,47,41047,2,71065.0,35532.5,631.735,635.267,0.551,0.448,631.735,,100.0,0.0,44.93228941404229,-123.01777344523597,Low,NWPP
South Dakota,SD,Minnehaha County,99,46099,2,299088.0,149544.0,920.13,926.552,0.435,0.564,920.13,,100.0,0.0,43.60344267195715,-96.80195094737519,High,MROW
Ohio,OH,Hamilton County,61,39061,2,42608.0,21304.0,911.424,916.054,0.076,0.923,911.4240000000001,,100.0,0.0,39.19837151885261,-84.46500537545603,Low,RFCW
Wisconsin,WI,Dane County,25,55025,2,9176.0,9176.0,1397.313,1404.963,0.173,0.827,1397.313,,50.0,0.0,43.067502439369605,-89.41450769067761,High,MROE
California,CA,Orange County,59,06059,2,122723.0,61361.5,428.464,429.983,0.465,0.537,428.464,,100.0,0.0,33.71214217896285,-117.82495257440516,Extremely High,CAMX
New York,NY,Niagara County,63,36063,2,77801.0,38900.5,242.089,242.776,0.418,0.582,242.089,,100.0,0.0,43.07844705215735,-78.98776219925386,Low,NYUP
Ohio,OH,Warren County,165,39165,2,281216.0,140608.0,911.424,916.054,0.076,0.923,911.424,,100.0,0.0,39.34645727552941,-84.26672766841791,Low,RFCW
Florida,FL,Broward County,11,12011,2,122813.0,61406.5,782.262,784.785,0.066,0.931,782.2619999999998,,100.0,0.0,26.18754133015962,-80.24010629620355,High,FRCC
New York,NY,Erie County,29,36029,2,41938.0,41938.0,242.089,242.776,0.418,0.582,242.08900000000003,,50.0,0.0,43.01759292539782,-78.78079523595645,Low,NYUP
Tennessee,TN,Shelby County,157,47157,2,1738567.0,869283.5,898.079,903.306,0.091,0.909,898.079,898.079,100.0,100.0,35.028971635202296,-90.09565980021834,Low,SRTV
Pennsylvania,PA,Allegheny County,3,42003,2,87448.0,43724.0,911.424,916.054,0.076,0.923,911.4240000000001,911.424,100.0,100.0,40.439372902021155,-80.11632494590026,Low,RFCW
Michigan,MI,Eaton County,45,26045,2,95922.0,47961.0,970.617,975.978,0.112,0.888,970.617,,100.0,0.0,42.69667086228964,-84.65454187055624,Low,RFCM
Maryland,MD,Anne Arundel County,3,24003,2,123251.0,61625.5,596.904,599.17,0.04,0.96,596.904,,100.0,0.0,39.17684670564269,-76.64463809540473,Low-Medium,RFCE
Pennsylvania,PA,Lehigh County,77,42077,2,195243.0,97621.5,596.904,599.17,0.04,0.96,596.904,,100.0,0.0,40.58996575346173,-75.55594309535164,Medium-High,RFCE
Maine,ME,Cumberland County,5,23005,2,55383.0,55383.0,539.275,543.178,0.192,0.807,539.275,,50.0,0.0,43.77645494131252,-70.09226452273563,Low,NEWE
Kentucky,KY,Jefferson County,111,21111,2,71319.0,35659.5,898.079,903.306,0.091,0.909,898.079,,100.0,0.0,38.25984692073248,-85.62029607867696,Low,SRTV
Florida,FL,Duval County,31,12031,2,30201.0,30201.0,782.262,784.785,0.066,0.931,782.262,,50.0,0.0,30.28858900942557,-81.62207413488971,High,FRCC
Oregon,OR,Wasco County,65,41065,2,2588328.0,1294164.0,631.735,635.267,0.551,0.448,631.735,,100.0,0.0,45.635288454626405,-121.20185310595801,Low,NWPP
Indiana,IN,Tippecanoe County,157,18157,2,0.0,,911.424,916.054,0.076,0.923,,,0.0,0.0,40.42182214999998,-86.91535,Low-Medium,RFCW
Ohio,OH,Butler County,17,39017,2,1543625.0,1543625.0,911.424,916.054,0.076,0.923,911.424,,50.0,0.0,39.35058502468337,-84.50779754288232,Low,RFCW
Texas,TX,Denton County,121,48121,2,322224.0,161112.0,733.862,736.629,0.287,0.712,733.862,,100.0,0.0,33.00544180383952,-97.24572254474292,High,ERCT
Oregon,OR,Multnomah County,51,41051,2,41556.0,41556.0,631.735,635.267,0.551,0.448,631.735,,50.0,0.0,45.521484190998606,-122.68063301806403,Low,NWPP
Georgia,GA,Muscogee County,215,13215,2,537455.0,268727.5,842.329,846.007,0.095,0.905,842.329,842.329,100.0,50.0,32.49818175768699,-84.88357126460332,Medium-High,SRSO
Georgia,GA,Fayette County,113,13113,2,567827.0,283913.5,842.329,846.007,0.095,0.905,842.329,842.329,100.0,50.0,33.4496462037806,-84.52313538953436,Low,SRSO
Georgia,GA,Cobb County,67,13067,2,96218.0,48109.0,842.329,846.007,0.095,0.905,842.3289999999998,842.329,100.0,50.0,33.99810744643619,-84.57876175807407,High,SRSO
Florida,FL,Orange County,95,12095,2,115951.0,57975.5,782.262,784.785,0.066,0.931,782.2619999999998,,100.0,0.0,28.597705763098958,-81.47899195918816,High,FRCC
Missouri,MO,Jackson County,95,29095,2,0.0,,861.999,867.74,0.401,0.599,,,0.0,0.0,39.10104435000002,-94.57998305,Low,SPNO
Texas,TX,Montgomery County,339,48339,2,126121.0,126121.0,739.72,741.741,0.03,0.969,739.72,,50.0,0.0,30.177959675371554,-95.48628637313081,Medium-High,SRMV
Oregon,OR,Deschutes County,17,41017,1,11249.0,11249.0,631.735,635.267,0.551,0.448,631.735,,100.0,0.0,44.04740740013566,-121.3285496442757,Low-Medium,NWPP
Oregon,OR,Linn County,43,41043,1,2521.0,2521.0,631.735,635.267,0.551,0.448,631.735,,100.0,0.0,44.77521879334287,-122.6159312375102,Low,NWPP
Oregon,OR,Josephine County,33,41033,1,0.0,,631.735,635.267,0.551,0.448,,,0.0,0.0,42.43788240000002,-123.3286299,Low,NWPP
Oregon,OR,Lane County,39,41039,1,0.0,,631.735,635.267,0.551,0.448,,,0.0,0.0,43.797155399999994,-123.05594560000002,Low,NWPP
Puerto Rico,PR,Guaynabo Municipio,61,72061,1,0.0,,1543.073,1548.53,0.023,0.977,,,0.0,0.0,18.41743590000001,-66.10898950000002,Low,PRMS
Pennsylvania,PA,Philadelphia County,101,42101,1,119659.0,119659.0,596.904,599.17,0.04,0.96,596.904,,100.0,0.0,39.959809526359834,-75.16083249176855,Medium-High,RFCE
Texas,TX,Navarro County,349,48349,1,11717820.0,11717820.0,733.862,736.629,0.287,0.712,733.862,,100.0,0.0,31.969859243171552,-96.51328904143112,Low,ERCT
Puerto Rico,PR,San Juan Municipio,127,72127,1,23137.0,23137.0,1543.073,1548.53,0.023,0.977,1543.073,,100.0,0.0,18.446826968330527,-66.0516872147712,Low,PRMS
Virginia,VA,Lynchburg city,680,51680,1,0.0,,911.424,916.054,0.076,0.923,,,0.0,0.0,37.41568800000001,-79.1427063,Medium-High,RFCW
Wyoming,WY,Campbell County,5,56005,1,5975.0,5975.0,631.735,635.267,0.551,0.448,631.735,,100.0,0.0,44.18923686731807,-105.61048019591456,Medium-High,NWPP
Wisconsin,WI,Waukesha County,133,55133,1,47298.0,47298.0,911.424,916.054,0.076,0.923,911.424,,100.0,0.0,43.05138860290855,-88.21666504030928,High,RFCW
Wisconsin,WI,Walworth County,127,55127,1,9001.0,9001.0,911.424,916.054,0.076,0.923,911.424,,100.0,0.0,42.83365364525283,-88.73398014165807,High,RFCW
Wisconsin,WI,Racine County,101,55101,1,9094.0,9094.0,911.424,916.054,0.076,0.923,911.424,,100.0,0.0,42.67566516635273,-87.91840525370044,Medium-High,RFCW
Wisconsin,WI,Marquette County,77,55077,1,8257.0,8257.0,1397.313,1404.963,0.173,0.827,1397.313,,100.0,0.0,43.78218427328896,-89.57480850448691,High,MROE
Wisconsin,WI,Dunn County,33,55033,1,3368.0,3368.0,920.13,926.552,0.435,0.564,920.13,,100.0,0.0,44.87716526998907,-91.91999887343924,Medium-High,MROW
Wisconsin,WI,Dodge County,27,55027,1,18261491.0,18261491.0,1397.313,1404.963,0.173,0.827,1397.313,,100.0,0.0,43.510374241426895,-88.81652212808933,High,MROE
Wisconsin,WI,Columbia County,21,55021,1,361.0,361.0,1397.313,1404.963,0.173,0.827,1397.313,,100.0,0.0,43.63833310938071,-89.72140293849328,High,MROE
Wisconsin,WI,Calumet County,15,55015,1,60180.0,60180.0,911.424,916.054,0.076,0.923,911.424,,100.0,0.0,44.20445478438387,-88.34487612453424,Low,RFCW
West Virginia,WV,Morgan County,65,54065,1,0.0,,911.424,916.054,0.076,0.923,,,0.0,0.0,39.63098509999999,-78.2253196,Medium-High,RFCW
Washington,WA,Whatcom County,73,53073,1,4312.0,4312.0,631.735,635.267,0.551,0.448,631.735,,100.0,0.0,48.75726819331372,-122.480547528078,Low,NWPP
Washington,WA,Thurston County,67,53067,1,9139.0,9139.0,631.735,635.267,0.551,0.448,631.735,,100.0,0.0,46.94142447057516,-122.62504386293934,Low,NWPP
Virginia,VA,Mecklenburg County,117,51117,1,11273954.0,11273954.0,593.419,596.326,0.099,0.9,593.419,,100.0,0.0,36.685373308018725,-78.37655327186563,Medium-High,SRVC
Virginia,VA,Manassas city,683,51683,1,95987.0,95987.0,593.419,596.326,0.099,0.9,593.419,,100.0,0.0,38.740435867935545,-77.50398435557676,High,SRVC
Virginia,VA,Harrisonburg city,660,51660,1,505755.0,505755.0,593.419,596.326,0.099,0.9,593.419,,100.0,0.0,38.46254477041857,-78.8567969651793,Medium-High,SRVC
South Carolina,SC,Aiken County,3,45003,1,3608146.0,3608146.0,593.419,596.326,0.099,0.9,593.419,,100.0,0.0,33.642273149086826,-81.84262698059472,Medium-High,SRVC
Virginia,VA,Frederick County,69,51069,1,273198.0,273198.0,593.419,596.326,0.099,0.9,593.419,593.419,100.0,100.0,39.017644447296405,-78.29095951194115,Medium-High,SRVC
Virginia,VA,Culpeper County,47,51047,1,1299936.0,1299936.0,593.419,596.326,0.099,0.9,593.419,,100.0,0.0,38.454936889103365,-77.97818714607277,Medium-High,SRVC
Utah,UT,Washington County,53,49053,1,1833.0,1833.0,631.735,635.267,0.551,0.448,631.735,,100.0,0.0,37.062799199655686,-113.54474869182133,Extremely High,NWPP
Utah,UT,Uintah County,47,49047,1,12971.0,12971.0,631.735,635.267,0.551,0.448,631.735,,100.0,0.0,40.456593451731784,-109.52899881097022,Low,NWPP
Texas,TX,Wichita County,485,48485,1,39127.0,39127.0,733.862,736.629,0.287,0.712,733.862,,100.0,0.0,33.95337794611651,-98.5247312569212,Medium-High,ERCT
Texas,TX,Ward County,475,48475,1,2238928.0,2238928.0,733.862,736.629,0.287,0.712,733.862,,100.0,0.0,31.513473610030378,-103.44862076924288,Extremely High,ERCT
Texas,TX,Milam County,331,48331,1,4357993.0,4357993.0,733.862,736.629,0.287,0.712,733.862,,100.0,0.0,30.57331452461579,-97.08018498547705,Low,ERCT
Texas,TX,Medina County,325,48325,1,228897.0,228897.0,733.862,736.629,0.287,0.712,733.862,,100.0,0.0,29.412976988788397,-98.806374449939,High,ERCT
Texas,TX,Hood County,221,48221,1,1768886.0,1768886.0,733.862,736.629,0.287,0.712,733.862,,100.0,0.0,32.34174517429652,-97.7312280300424,Low-Medium,ERCT
Texas,TX,Angelina County,5,48005,1,12987.0,12987.0,739.72,741.741,0.03,0.969,739.72,,100.0,0.0,31.194175662576733,-94.79677175730814,Low-Medium,SRMV
Tennessee,TN,Roane County,145,47145,1,0.0,,898.079,903.306,0.091,0.909,,,0.0,0.0,35.92951329999998,-84.310567,Low-Medium,SRTV
Tennessee,TN,Henry County,79,47079,1,85491.0,85491.0,898.079,903.306,0.091,0.909,898.0789999999998,,100.0,0.0,36.3270316008224,-88.32007315006497,Low,SRTV
Tennessee,TN,Grainger County,57,47057,1,1232.0,1232.0,898.079,903.306,0.091,0.909,898.079,,100.0,0.0,36.32807395055384,-83.37670351660657,Low-Medium,SRTV
South Carolina,SC,Horry County,51,45051,1,91946.0,91946.0,593.419,596.326,0.099,0.9,593.419,,100.0,0.0,33.674583221801456,-78.94369603285817,Low,SRVC
Oregon,OR,Clackamas County,5,41005,1,24854.0,24854.0,631.735,635.267,0.551,0.448,631.735,,100.0,0.0,45.31873065187943,-122.76587362101382,Low,NWPP
Alabama,AL,Houston County,69,01069,1,10736.0,10736.0,842.329,846.007,0.095,0.905,842.329,,100.0,0.0,31.231904196338384,-85.45584883805839,Low-Medium,SRSO
Oklahoma,OK,Oklahoma County,109,40109,1,0.0,,872.042,875.567,0.367,0.63,,,0.0,0.0,35.46720489999999,-97.6497453,Low-Medium,SPSO
Iowa,IA,Scott County,163,19163,1,53983.0,53983.0,920.13,926.552,0.435,0.564,920.13,,100.0,0.0,41.55026944582376,-90.482409225225,Low,MROW
Illinois,IL,Champaign County,19,17019,1,45620.0,45620.0,1239.839,1248.582,0.152,0.845,1239.839,,100.0,0.0,40.09525910728646,-88.24203140069088,Medium-High,SRMW
Illinois,IL,Lake County,97,17097,1,55001.0,55001.0,911.424,916.054,0.076,0.923,911.4240000000001,,100.0,0.0,42.216756536018735,-87.95284650862307,High,RFCW
Illinois,IL,Madison County,119,17119,1,204.0,204.0,1239.839,1248.582,0.152,0.845,1239.839,,100.0,0.0,38.81056014127996,-89.94870327621621,Medium-High,SRMW
Indiana,IN,Hancock County,59,18059,1,21005.0,21005.0,911.424,916.054,0.076,0.923,911.4240000000001,,100.0,0.0,39.71718414793671,-85.94132960161893,Medium-High,RFCW
Indiana,IN,Lake County,89,18089,1,116014.0,116014.0,911.424,916.054,0.076,0.923,911.4240000000001,,100.0,0.0,41.707418451036666,-87.52019308155617,High,RFCW
Indiana,IN,Monroe County,105,18105,1,94298.0,94298.0,911.424,916.054,0.076,0.923,911.424,,100.0,0.0,39.17441904078126,-86.50070264503239,Medium-High,RFCW
Iowa,IA,Johnson County,103,19103,1,2709.0,2709.0,920.13,926.552,0.435,0.564,920.13,,100.0,0.0,41.703998424478854,-91.58707810457734,Medium-High,MROW
Iowa,IA,Madison County,121,19121,1,3691114.0,3691114.0,920.13,926.552,0.435,0.564,920.13,,100.0,0.0,41.4982126945884,-93.78856494092211,Low,MROW
Kansas,KS,Ellis County,51,20051,1,11561.0,11561.0,861.999,867.74,0.401,0.599,861.9990000000001,,100.0,0.0,38.87213220021316,-99.30018745000542,High,SPNO
Oklahoma,OK,Muskogee County,101,40101,1,112466.0,112466.0,872.042,875.567,0.367,0.63,872.0419999999999,,100.0,0.0,35.56813484793012,-95.51241664405325,Low,SPSO
Kentucky,KY,Floyd County,71,21071,1,15594.0,15594.0,898.079,903.306,0.091,0.909,898.079,,100.0,0.0,37.600176716138854,-82.67876276810777,Medium-High,SRTV
Kentucky,KY,Hopkins County,107,21107,1,442423.0,442423.0,898.079,903.306,0.091,0.909,898.079,,100.0,0.0,37.362990903258414,-87.54712130515388,Low,SRTV
Kentucky,KY,McCracken County,145,21145,1,223516.0,223516.0,898.079,903.306,0.091,0.909,898.079,,100.0,0.0,37.08923909811934,-88.70305756107939,Low,SRTV
Louisiana,LA,East Baton Rouge Parish,33,22033,1,0.0,,739.72,741.741,0.03,0.969,,,0.0,0.0,30.407445999999975,-91.1725454,Low,SRMV
Maryland,MD,Baltimore County,5,24005,1,0.0,,596.904,599.17,0.04,0.96,,596.904,0.0,100.0,39.4273178,-76.8115503,Low-Medium,RFCE
Maryland,MD,Frederick County,21,24021,1,64023.0,64023.0,911.424,916.054,0.076,0.923,911.424,,100.0,0.0,39.377776311443,-77.41151850611422,High,RFCW
Maryland,MD,Howard County,27,24027,1,112205.0,112205.0,596.904,599.17,0.04,0.96,596.904,,100.0,0.0,39.13368478590359,-76.85140715035047,Low-Medium,RFCE
Maryland,MD,Montgomery County,31,24031,1,146301.0,146301.0,596.904,599.17,0.04,0.96,596.904,596.904,100.0,100.0,39.05856287562289,-76.9643217094945,Low-Medium,RFCE
Idaho,ID,Madison County,65,16065,1,18269.0,18269.0,631.735,635.267,0.551,0.448,631.735,,100.0,0.0,43.8252432321768,-111.78209278694165,Low-Medium,NWPP
Idaho,ID,Bear Lake County,7,16007,1,4081.0,4081.0,631.735,635.267,0.551,0.448,631.735,,100.0,0.0,42.317295842348535,-111.3042449169628,Low-Medium,NWPP
Georgia,GA,Forsyth County,117,13117,1,173693.0,173693.0,842.329,846.007,0.095,0.905,842.3289999999998,,100.0,0.0,34.10338317620051,-84.2149739266172,Medium-High,SRSO
Florida,FL,Polk County,105,12105,1,22578.0,22578.0,782.262,784.785,0.066,0.931,782.2619999999998,,100.0,0.0,28.29407690335012,-81.83484809231037,High,FRCC
Alabama,AL,Jefferson County,73,01073,1,665569.0,665569.0,842.329,846.007,0.095,0.905,842.329,,100.0,0.0,33.40471562419184,-86.91145719083487,Medium-High,SRSO
Arizona,AZ,Cochise County,3,04003,1,7539.0,7539.0,703.703,706.189,0.223,0.777,703.703,,100.0,0.0,31.972674750091073,-110.3047516999998,Extremely High,AZNM
Arizona,AZ,Pima County,19,04019,1,14373.0,14373.0,703.703,706.189,0.223,0.777,703.7030000000001,,100.0,0.0,32.092706483207095,-110.7874236595772,Extremely High,AZNM
Arkansas,AR,Pulaski County,119,05119,1,31845.0,31845.0,739.72,741.741,0.03,0.969,739.72,,100.0,0.0,34.75623579847398,-92.44472351005184,Low,SRMV
Arkansas,AR,White County,145,05145,1,4580.0,4580.0,739.72,741.741,0.03,0.969,739.72,,100.0,0.0,35.2492158371357,-91.7409058590938,Low,SRMV
California,CA,Contra Costa County,13,06013,1,0.0,,428.464,429.983,0.465,0.537,,,0.0,0.0,37.971080899999976,-122.0437382,Low-Medium,CAMX
California,CA,Napa County,55,06055,1,162791.0,162791.0,428.464,429.983,0.465,0.537,428.464,,100.0,0.0,38.254085135435545,-122.2730981200017,Medium-High,CAMX
California,CA,Riverside County,65,06065,1,0.0,,428.464,429.983,0.465,0.537,,,0.0,0.0,33.910289899999995,-117.5030207,Extremely High,CAMX
California,CA,San Luis Obispo County,79,06079,1,0.0,,428.464,429.983,0.465,0.537,,,0.0,0.0,35.25531619999998,-120.64151280000002,Medium-High,CAMX
California,CA,Solano County,95,06095,1,55270.0,55270.0,428.464,429.983,0.465,0.537,428.464,,100.0,0.0,38.24625878204932,-122.06720998673867,Medium-High,CAMX
California,CA,Stanislaus County,99,06099,1,6017.0,6017.0,428.464,429.983,0.465,0.537,428.46399999999994,,100.0,0.0,37.66514737401328,-121.04003747175076,Low-Medium,CAMX
Colorado,CO,Adams County,1,08001,1,86059.0,86059.0,1036.601,1042.539,0.419,0.581,1036.601,,100.0,0.0,39.92241855755477,-104.98324467111505,Extremely High,RMPA
Colorado,CO,Broomfield County,14,08014,1,188160.0,188160.0,1036.601,1042.539,0.419,0.581,1036.601,,100.0,0.0,39.98908743748672,-105.02070322444692,Extremely High,RMPA
Connecticut,CT,Capitol Planning Region,110,09110,1,0.0,,539.275,543.178,0.192,0.807,,,0.0,0.0,41.7070776,-72.5898636,Low-Medium,NEWE
Connecticut,CT,Greater Bridgeport Planning Region,120,09120,1,134982.0,134982.0,539.275,543.178,0.192,0.807,539.275,,100.0,0.0,41.24084597137587,-73.14729941546844,Low,NEWE
Connecticut,CT,South Central Connecticut Planning Region,170,09170,1,53967.0,53967.0,539.275,543.178,0.192,0.807,539.275,,100.0,0.0,41.47880657858901,-72.80100588134881,Low,NEWE
District of Columbia,DC,District of Columbia,1,11001,1,0.0,,596.904,599.17,0.04,0.96,,,0.0,0.0,38.902887900000046,-77.0291491,Low,RFCE
Maryland,MD,Prince George's County,33,24033,1,43057.0,43057.0,596.904,599.17,0.04,0.96,596.904,,100.0,0.0,39.052822508078144,-76.92590821703205,Low-Medium,RFCE
Massachusetts,MA,Essex County,9,25009,1,51354.0,51354.0,539.275,543.178,0.192,0.807,539.275,,100.0,0.0,42.68570898649228,-71.20859932011268,Low-Medium,NEWE
Michigan,MI,Genesee County,49,26049,1,36835.0,36835.0,970.617,975.978,0.112,0.888,970.617,,100.0,0.0,42.968713165412495,-83.77960216531768,High,RFCM
New Mexico,NM,Doña Ana County,13,35013,1,31837.0,31837.0,703.703,706.189,0.223,0.777,703.703,,100.0,0.0,32.30965547587507,-106.72917107190824,Extremely High,AZNM
New York,NY,Kings County,47,36047,1,0.0,,864.469,865.744,0.006,0.994,,864.469,0.0,100.0,40.65769569999999,-74.0048163,Extremely High,NYCW
New York,NY,Onondaga County,67,36067,1,12169.0,12169.0,242.089,242.776,0.418,0.582,242.08900000000003,,100.0,0.0,43.01207616834648,-76.11592528923454,Low,NYUP
New York,NY,Suffolk County,103,36103,1,36746.0,36746.0,1180.672,1189.333,0.065,0.935,1180.672,,100.0,0.0,40.84365992460773,-72.88334530997138,Extremely High,NYLI
New York,NY,Westchester County,119,36119,1,13426.0,13426.0,864.469,865.744,0.006,0.994,864.4689999999999,,100.0,0.0,40.95126975040576,-73.89790099960555,Low,NYCW
North Carolina,NC,Caldwell County,27,37027,1,3407194.0,3407194.0,593.419,596.326,0.099,0.9,593.419,,100.0,0.0,35.89473769568106,-81.54651452543965,Medium-High,SRVC
North Carolina,NC,Cleveland County,45,37045,1,379990.0,379990.0,593.419,596.326,0.099,0.9,593.419,,100.0,0.0,35.25044990396285,-81.3950094307914,High,SRVC
North Carolina,NC,Union County,179,37179,1,608141.0,608141.0,593.419,596.326,0.099,0.9,593.419,,100.0,0.0,35.179383199219835,-80.57017464245234,Extremely High,SRVC
North Dakota,ND,Cass County,17,38017,1,25931.0,25931.0,920.13,926.552,0.435,0.564,920.13,,100.0,0.0,46.81509687104177,-96.84432644156146,Low-Medium,MROW
North Dakota,ND,Dickey County,21,38021,1,2706037.0,2706037.0,920.13,926.552,0.435,0.564,920.13,920.13,100.0,100.0,46.013549459536904,-98.57244091744636,Low,MROW
Ohio,OH,Clark County,23,39023,1,79937.0,79937.0,911.424,916.054,0.076,0.923,911.424,,100.0,0.0,39.912780083635845,-83.72376141562717,Low,RFCW
Ohio,OH,Delaware County,41,39041,1,307645.0,307645.0,911.424,916.054,0.076,0.923,911.4240000000001,,100.0,0.0,40.22452425388648,-83.04586008454727,Medium-High,RFCW
Ohio,OH,Erie County,43,39043,1,633484.0,633484.0,911.424,916.054,0.076,0.923,911.424,,100.0,0.0,41.4324305009821,-82.71902751224367,Low,RFCW
Ohio,OH,Fairfield County,45,39045,1,289253.0,289253.0,911.424,916.054,0.076,0.923,911.424,,100.0,0.0,39.724010166114695,-82.69112739236837,Low,RFCW
Ohio,OH,Mahoning County,99,39099,1,75379.0,75379.0,911.424,916.054,0.076,0.923,911.424,,100.0,0.0,41.04105972873746,-80.63309049266806,Low,RFCW
Ohio,OH,Summit County,153,39153,1,59427.0,59427.0,911.424,916.054,0.076,0.923,911.424,,100.0,0.0,41.057431068795566,-81.52197151267426,Low-Medium,RFCW
Ohio,OH,Wood County,173,39173,1,21498189.0,21498189.0,911.424,916.054,0.076,0.923,911.4239999999999,,100.0,0.0,41.46529826036125,-83.63835552524,Low,RFCW
Oklahoma,OK,Bryan County,13,40013,1,13494.0,13494.0,872.042,875.567,0.367,0.63,872.042,,100.0,0.0,33.971721452767405,-96.4028549048576,Low,SPSO
New Mexico,NM,Santa Fe County,49,35049,1,31727.0,31727.0,703.703,706.189,0.223,0.777,703.703,,100.0,0.0,35.67244389730999,-105.95657515744648,High,AZNM
New Jersey,NJ,Monmouth County,25,34025,1,25904.0,25904.0,596.904,599.17,0.04,0.96,596.904,,100.0,0.0,40.15704355065648,-74.10158204974093,Medium-High,RFCE
Michigan,MI,Macomb County,99,26099,1,0.0,,970.617,975.978,0.112,0.888,,,0.0,0.0,42.62794240000004,-82.98839390000002,Low-Medium,RFCM
New Jersey,NJ,Mercer County,21,34021,1,0.0,,596.904,599.17,0.04,0.96,,,0.0,0.0,40.315558000000024,-74.6688514,High,RFCE
Michigan,MI,Monroe County,115,26115,1,0.0,,970.617,975.978,0.112,0.888,,,0.0,0.0,41.8072817,-83.6276287,Low,RFCM
Michigan,MI,Oakland County,125,26125,1,40574.0,40574.0,970.617,975.978,0.112,0.888,970.617,,100.0,0.0,42.4476969142348,-83.26266713633784,Low,RFCM
Minnesota,MN,Anoka County,3,27003,1,74101.0,74101.0,920.13,926.552,0.435,0.564,920.1299999999999,,100.0,0.0,45.13219704691406,-93.09562181940242,High,MROW
Minnesota,MN,Carver County,19,27019,1,135505.0,135505.0,920.13,926.552,0.435,0.564,920.13,,100.0,0.0,44.851592871190945,-93.59883127427165,Low,MROW
Minnesota,MN,Olmsted County,109,27109,1,48317.0,48317.0,920.13,926.552,0.435,0.564,920.13,,100.0,0.0,44.07081644375691,-92.52212055150672,Low,MROW
Minnesota,MN,Ramsey County,123,27123,1,108201.0,108201.0,920.13,926.552,0.435,0.564,920.13,,100.0,0.0,44.97225309779238,-93.14746015507276,Low,MROW
Minnesota,MN,St. Louis County,137,27137,1,27162.0,27162.0,920.13,926.552,0.435,0.564,920.13,,100.0,0.0,46.82746658999977,-92.13043071418323,Medium-High,MROW
Mississippi,MS,DeSoto County,33,28033,1,812955.0,812955.0,739.72,741.741,0.03,0.969,739.72,,100.0,0.0,34.99348804291279,-90.03416995691286,Low,SRMV
Mississippi,MS,Madison County,89,28089,1,16581378.0,16581378.0,898.079,903.306,0.091,0.909,898.079,,100.0,0.0,32.597993067055405,-90.0918524305196,Low,SRTV
Missouri,MO,Boone County,19,29019,1,39487.0,39487.0,1239.839,1248.582,0.152,0.845,1239.839,,100.0,0.0,38.9235119701765,-92.28862384290709,Low,SRMW
Missouri,MO,Caldwell County,25,29025,1,1433.0,1433.0,1239.839,1248.582,0.152,0.845,1239.839,,100.0,0.0,39.74404823646494,-93.9973760190651,Low,SRMW
Montana,MT,Custer County,17,30017,1,8493.0,8493.0,920.13,926.552,0.435,0.564,920.13,,100.0,0.0,46.40689745786043,-105.8206447445356,Low,MROW
Montana,MT,Granite County,39,30039,1,1510.0,1510.0,631.735,635.267,0.551,0.448,631.735,,100.0,0.0,46.33213162016486,-113.29267194552416,Extremely High,NWPP
Nebraska,NE,Buffalo County,19,31019,1,356125.0,356125.0,920.13,926.552,0.435,0.564,920.13,,100.0,0.0,40.72592346991134,-99.03832882211478,Low-Medium,MROW
New Hampshire,NH,Strafford County,17,33017,1,30553.0,30553.0,539.275,543.178,0.192,0.807,539.275,,100.0,0.0,43.14361852296161,-70.95247263069143,Low,NEWE
New Jersey,NJ,Bergen County,3,34003,1,200804.0,200804.0,242.089,242.776,0.418,0.582,242.089,,100.0,0.0,41.078302339181775,-74.15291807503208,Low,NYUP
New Jersey,NJ,Gloucester County,15,34015,1,41058.0,41058.0,596.904,599.17,0.04,0.96,596.904,,100.0,0.0,39.83093011411571,-75.19532326682351,Medium-High,RFCE
New Jersey,NJ,Union County,39,34039,1,94373.0,94373.0,596.904,599.17,0.04,0.96,596.904,,100.0,0.0,40.64375303338713,-74.28548116880219,Extremely High,RFCE
